residencia,codigo_postal,municipio,telefono,titularidad,plazas,url,Latitude,Longitude,pais,direccion
Residencia Nuestra Señora de Valverde,28053,Madrid,91 477 71 83,Privada,44,,40.39326,-3.672448,España,Calle Convenio 7
Residencia El Mural,28390,Belmonte de Tajo,91 874 74 11,Privada,49,,40.133869,-3.33755,España,Barrio Alto 35
Residencia de 3ª edad Las Mercedes,28023,Madrid,91 307 01 76,Privada,20,,40.460646,-3.780955,España,Calle AnaTeresa 7
Residencia Lusanz,28035,Madrid,91 316 58 71,Privada,22,www.residencialusanz.com,40.464681,-3.722529,España,Calle Aurora 9
Residencia de 3ª edad San Juan de Dios,28607,Álamo (El),91 812 14 14,Privada,303,www.residenciasanjuandedios.es,40.2374,-3.99384,España,Carretera deNavalcarnero-Chinchón Km.5
Residencia de la 3ª edad Benja,28607,Álamo (El),91 810 41 50,Privada,188,www.residenciasdoctorlopezmalla.com,40.230334,-3.985376,España,Avenida deToledo 23
Residencia Santa Gema Galgani,28607,Álamo (El),91 812 09 40,Privada,14,www.residencia-santa-gema-galgani.com,40.224957,-3.996695,España,Calle Pensamientos 20
Residencia La Edad de Oro,28607,Álamo (El),91 812 22 85,Privada,111,www.residenciaedaddeoro.com,40.236131,-3.991305,España,Avenida PríncipedeAsturias 1
Residencia Cervantes,28805,Alcalá de Henares,91 883 06 05,Privada,46,www.residenciacervantes.com,40.488965,-3.349827,España,Calle JoséCaballero 1-3
Residencia de personas mayores Francisco de Vitoria,28805,Alcalá de Henares,91 889 30 50,Pública autonómica,513,,40.508024,-3.357504,España,Calle Villamalea 1
Residencia de personas mayores Cisneros,28806,Alcalá de Henares,91 880 00 15,Pública autonómica,129,,40.489541,-3.376695,España,Avenida deAjalvir 1
Alcalá Centro Geriátrico,28806,Alcalá de Henares,91 884 20 27,Privada,140,,40.511397,-3.374137,España,Calle GustavoAdolfoBécquer 27
DomusVi Alcalá de Henares,28806,Alcalá de Henares,91 830 35 52,Privada,180,www.domusvi.es/residencia-de-mayores-alcala-de-henares,40497,-3.37385,España,Avenida MigueldeUnamuno 5
Sanitas Residencial Henares,28806,Alcalá de Henares,91 830 35 11,Privada,136,www.sanitas.es/sanitasresidencial/residencias-mayores/residencia-henares,40.49439,-3.371467,España,Calle MiguelDelibes 2
Ballesol Alcalá de Henares,28806,Alcalá de Henares,91 802 92 12 / 91 830 10 09,Privada,260,ballesol.es/residencias-para-mayores-en-la-comunidad-de-madrid/ballesol-alcala-de-henares/,40.50207,-3.367425,España,Calle OctavioPaz 21
AMAVIR Alcalá de Henares,28806,Alcalá de Henares,901 30 20 10,Privada,180,www.amavir.es/residencia-de-mayores-amavir-alcala-de-henares,40.5007,-3.3716,España,Calle OctavioPaz 13
Orpea Alcobendas,28100,Alcobendas,91 490 06 78,Privada,180,orpea.es/centros-residencias/centro-dia-residencia-ancianos-madrid-alcobendas,40.549784,-3.650733,España,Avenida MigueldeCervantes 3
Ballesol Alcobendas,28100,Alcobendas,91 662 50 87,Privada,154,ballesol.es/residencias-para-mayores-en-la-comunidad-de-madrid/ballesol-alcobendas/,40.540987,-3.649774,España,Calle RamónyCajal 1
Orpea La Moraleja,28108,Alcobendas,91 650 89 10,Privada,132,orpea.es/centros-residencias/residencia-ancianos-madrid-la-moraleja,40.5199,-3.65364,España,Carretera deBurgos Km.14-Urb.CuestaBlanca
Residencia Gastón Baquero,28108,Alcobendas,91 661 71 91 / 91 661 28 76,Pública autonómica,201,,40.522077,-3.652882,España,Calle FranciscoChicoMendes 8
Sanitas Residencial La Moraleja,28108,Alcobendas,91 490 37 70,Privada,126,www.sanitas.es/sanitasresidencial/residencias-mayores/residencia-la-moraleja,40.534613,-3.633549,España,Avenida LaVega 20
Caser Residencial La Moraleja,28109,Alcobendas,91 659 73 02,Privada,295,www.caseresidencial.es/la-moraleja,40.529931,-3.63244,España,Calle Salvia 133
Residencia de personas mayores Alcorcón,28922,Alcorcón,91 644 13 00 / 91 682 42 47,Pública autonómica,218,,40.340447,-3.842068,España,Avenida EstebanMárquez 2
AMAVIR Alcorcón,28922,Alcorcón,91 512 72 00,Privada,180,www.amavir.es/residencia-de-ancianos-madrid-amavir-alcorcon,40.335797,-3.828116,España,Calle GabrielaMistral 4
Residencia de 3ª edad Campodón,28922,Alcorcón,91 616 66 96 / 91 616 10 57,Privada,146,,40.361884,-3.87244,España,Calle Prado 3
Centro Residencial Sanitas Alcorcón,28923,Alcorcón,91 643 71 86,Privada,144,www.sanitas.es/sanitasresidencial/residencias-mayores/residencia-alcorcon,40.340788,-3.815432,España,Avenida dePolvoranca s/n
Residencia de ancianos San Juan Bautista,28620,Aldea del Fresno,91 862 10 45 / 91 864 90 01,Privada,84,,40.305789,-4.253379,España,Carretera Comarcal507 Km.22-FincaElRincón
Galdama Algete,28110,Algete,91 628 93 57,Privada,90,www.residenciasdemadrid.es/RESIDENCIA-ALGETE/,40.600652,-3.499469,España,Camino deValderrey s/n(esq.C/LuisdeGóngora)
Orpea Santo Domingo,28120,Algete,91 622 02 32,Privada,150,orpea.es/centros-residencias/residencia-ancianos-madrid-santo-domingo,40.625652,-3.581868,España,Callejón delasTerrazas s/n
Los Llanos Vital,28430,Alpedrete,91 851 08 88,Privada,93,www.losllanosvital.es,40.645494,-4.022564,España,Calle MigueldeCervantes 2
DomusVi Real Deleite,28300,Aranjuez,91 891 02 36,Privada,268,www.domusvi.es/residencia-para-mayores-sarquavitae-real-deleite,40.025948,-3.610572,España,Paseo delDeleite 3
Residencia Santiago Rusiñol,28300,Aranjuez,91 891 14 40,Pública autonómica,464,,40.036859,-3.592327,España,Plaza DoctorGonzálezBueno 16
Centro Residencial Los Villares,28500,Arganda del Rey,91 870 19 86,Privada,25,www.residencialosvillares.es,40.312053,-3.448587,España,Avenida delosVillares 1
Residencia de personas mayores Arganda del Rey,28500,Arganda del Rey,91 871 33 00,Pública autonómica,449,,40.2877,-3.43817,España,Avenida delInstituto s/n
Residencia Vigor,28490,Becerril de la Sierra,91 853 62 49,Privada,51,www.residenciavigor.com,40.711257,-3.986544,España,Paseo delaErmita 51
Residencia El Berrueco,28192,Berrueco (El),91 868 61 84,Pública autonómica,110,,40.887092,-3.560344,España,Calle Escuelas 1
Residencia Virgen del Pilar,28660,Boadilla del Monte,91 633 03 75,Privada,233,www.residenciavirgendelpilar.es,40.409206,-3.878629,España,Calle Mártires 14
SERGESA Boadilla del Monte,28660,Boadilla del Monte,91 495 28 60,Privada,180,www.sergesa.com/residencia-geriatrica-en-madrid-boadilla-del-monte,40.407051,-3.893927,España,Calle SeveroOchoa 8
Residencia de 3ª edad El Pilar,28690,Brunete,91 815 82 25,Privada,15,www.residenciaelpilarbrunete.com,40.405553,-3.996236,España,Paseo deRonda 8
GERIASA Brunete,28690,Brunete,91 815 83 00,Privada,248,www.geriasa.es,40.403493,-4.003612,España,Calle Eras 39
Pisos tutelados para personas mayores,28730,Buitrago del Lozoya,91 868 20 71,Pública autonómica,50,,40.986954,-3.633659,España,Calle Cotos 2-4-6
Residencia municipal Miralrío,28730,Buitrago del Lozoya,91 868 02 90,Privada,44,residencia.ayto-buitragodellozoya.es,40.990195,-3.638099,España,Avenida deMadrid 39
Residencia Marqués de Santillana,28730,Buitrago del Lozoya,91 868 07 86,Privada,42,,40.995684,-3.633999,España,Calle Mártires 2
Asociación Amigos de la 3ª Edad El Concejo,28720,Bustarviejo,91 848 20 55,Privada,51,,40.858612,-3.709377,España,Calle MarianoGarcía 1
Residencia Maravillas,28640,Cadalso de los Vidrios,91 864 00 81,Privada,112,www.residenciamaravillas.com,40.301421,-4.434597,España,Paseo delaCastellana 6
Residencia de 3ª edad de Campo Real,28510,Campo Real,91 874 10 09,Pública local,66,,40.338527,-3.376916,España,Avenida deArganda 1
Residencia Palacio de Carabaña,28560,Carabaña,91 872 30 97,Privada,49,,40.256378,-3.236384,España,Calle Madrid 3
AMAVIR Cenicientos,28650,Cenicientos,91 860 09 00,Privada,82,www.amavir.es/residencia-de-mayores-amavir-cenicientos,40.259689,-4.461493,España,Calle SanSebastián 13
Residencia de 3ª edad Mirasierra,28470,Cercedilla,91 852 03 14,Privada,46,www.residenciamirasierra.com,40.732574,-4.066404,España,Carretera AntiguadeLosMolinos 11
Residencia Montehermoso Camorritos,28470,Cercedilla,91 852 25 50,Privada,159,www.monte-hermoso.com,40.756571,-4.052788,España,Carretera deCamorritos s/n
"Residencia para Mayores del Carmen, S. L.",28470,Cercedilla,91 852 33 42,Privada,20,www.residenciadelcarmencercedilla.com,40.730493,-4.067206,España,Calle SalvadorCanals 5
Residencia La Pinarilla,28694,Chapinería,91 865 06 88,Privada,76,www.residencialapinarilla.com,40.382606,-4.208618,España,Calle Ventorro 4
Residencia El Llano,28370,Chinchón,91 894 13 46,Privada,54,,40.1364,-3.41996,España,Calle CruzdelPortugués 5
Residencia San José,28370,Chinchón,91 894 00 39,Privada,80,,40.141864,-3.416616,España,Calle TenienteOrtizdeZárate 56
Residencia Las Vegas,28350,Ciempozuelos,91 809 14 75,Pública autonómica,78,www.albertia.es/residencias/residencia-las-vegas,40.153865,-3.634648,España,Calle Cabañeros 110
Residencia de Ancianos Palacios,28350,Ciempozuelos,91 893 07 12 / 91 893 07 62,Privada,85,www.residenciapalacios.es/ciempozuelos/,40.159194,-3.614336,España,Paseo delaEstación 16
Hotel Residencia Virgen del Consuelo,28350,Ciempozuelos,91 893 31 40 / 91 893 31 29,Privada,73,www.residenciavirgendelconsuelo.com,40.156299,-3.630613,España,Avenida delosToreros 4
Residencia asistida de personas mayores - Complejo Asistencial Benito Menni,28350,Ciempozuelos,91 893 01 50,Privada sin fin de lucro,208,www.benitomenniciempozuelos.org,40.156188,-3.61933,España,Calle Jardines 1
Residencia para Mayores Casaquinta,28350,Ciempozuelos,91 893 30 00,Privada sin fin de lucro,320,www.residenciacasaquinta.es/,40.160069,-3.61456,España,Avenida SanJuandeDios 3
Centro San Juan de Dios,28350,Ciempozuelos,91 893 00 01,Privada sin fin de lucro,234,www.csjd.es,40.160069,-3.61456,España,Avenida SanJuandeDios 1
Residencia de 3ª edad Pablo Neruda,28350,Ciempozuelos,91 801 51 81,Privada,103,www.clecemayores.com/es/residencia/57/pablo-neruda/,40.1613,-3.62137,España,Calle SantaClara 1
Cobeña Inarejos,28863,Cobeña,91 620 86 97,Privada,99,www.residenciacobeña.es,40.573724,-3.503107,España,Calle VeredadelosSastres 1
Alba 2 Residencia Geriátrica,28863,Cobeña,91 620 87 54,Privada,128,www.residenalba.com,40.569196,-3.498821,España,Calle Viñuelas 2
Residencia Nuestra Señora del Pilar,28450,Collado Mediano,91 840 68 33,Privada sin fin de lucro,31,www.mayoreselpilar.es,40.666798,-4.045304,España,Calle SotograndedeAbajo 11
Residencia para mayores AMAVIR Nuestra Casa,28400,Collado Villalba,91 849 38 54,Pública autonómica,140,www.amavir.es/residencia-de-mayores-amavir-nuestra-casa,40.6428,-4.00176,España,Calle Águedas 1
Orpea Collado Villalba,28400,Collado Villalba,91 849 78 60,Privada,181,orpea.es/centros-residencias/residencia-ancianos-madrid-collado-villalba,40.644209,-3.995874,España,Avenida deMoralzarzal s/n
Sol Salud,28400,Collado Villalba,91 850 22 14,Privada,65,www.residenciasolsalud.net,40.6443,-3.98691,España,Urbanización LaCerca blq.30
Residencia de ancianos San Juan Bautista,28380,Colmenar de Oreja,91 894 33 07 / 91 894 44 98,Privada sin fin de lucro,99,,40.114281,-3.392982,España,Calle Madrid 23
Sanitas Residencial Almenara,28213,Colmenar del Arroyo,91 865 10 00,Privada,106,www.sanitas.es/sanitasresidencial/residencias-mayores/residencia-almenara,40.425212,-4.199442,España,Calle Colmenar 2
Residencia de personas mayores Colmenar Viejo,28770,Colmenar Viejo,91 847 40 00,Pública autonómica,393,,40.675093,-3.76996,España,Avenida delosRemedios 28
Residencia Gladiolos,28770,Colmenar Viejo,91 845 20 17,Privada,74,www.residenciagladiolos.com,40.64916,-3.780773,España,Calle Gladiolos 5-ColoniadeSanCrispín
Residencia de 3ª edad ADEMAR,28770,Colmenar Viejo,91 848 62 02,Privada,23,,40.651301,-3.782312,España,Calle Hortensias 2
Residencia Santa Teresa,28770,Colmenar Viejo,91 845 33 98,Privada,26,,40.65797,-3.765927,España,Calle IsabellaCatólica 1
Centro Residencial Sanitas Colmenar Viejo,28770,Colmenar Viejo,91 848 42 73,Privada,202,www.sanitas.es/sanitasresidencial/residencias-mayores/residencia-colmenarviejo,40.653031,-3.772931,España,Paseo Magdalena 2
AMAVIR Colmenar,28770,Colmenar Viejo,91 845 98 08,Privada,180,www.amavir.es/residencia-de-ancianos-madrid-amavir-colmenar,40.664217,-3.777631,España,Calle Mosquilona 65
Residencia Nuestra Señora de la Soledad y del Carmen,28770,Colmenar Viejo,91 845 15 23,Privada,82,www.fundacionbasilica.org/index.php/residencia/presentacion,40.658362,-3.761569,España,Calle Soledad 52
AMAVIR Coslada,28822,Coslada,91 673 30 65,Privada,180,www.amavir.es/residencia-de-ancianos-madrid-amavir-coslada,40.420903,-3.553158,España,Avenida España 130
DomusVi Parque Coslada,28822,Coslada,91 673 01 00,Privada,142,www.domusvi.es/residencia-mayores-madrid-parque-coslada,40.419579,-3.553665,España,Calle ManuelAzaña 5
Residencia de 3ª edad Ruiz y Latorre,28978,Cubas de la Sagra,91 814 28 95,Privada,28,www.centroresidencialruizylatorre.com,40.198496,-3.84462,España,Calle delasCasas 22
Residencia de personas mayores Santa María del Silencio - Cáritas,28978,Cubas de la Sagra,91 814 23 00,Privada sin fin de lucro,130,,40.190692,-3.840697,España,Calle SagradoCorazón 25
Residencia para mayores El Escorial,28280,Escorial (El),91 890 13 61,Privada,60,elescorial.gruposantagema.com,40.586443,-4.128244,España,Calle AriasMontano 12
Centro Residencial Sanitas El Escorial,28280,Escorial (El),91 853 35 33,Privada,169,www.sanitas.es/sanitasresidencial/residencias-mayores/residencia-elescorial,40.603854,-4.052666,España,Calle Nueve 9
Orpea Estremera,28595,Estremera,91 875 57 47 / 91 876 14 64,Privada,82,orpea.es/centros-residencias/centro-dia-residencia-ancianos-madrid-estremera,40.188153,-3.108639,España,Avenida PapaJuanPabloII s/n
Residencia de 3ª edad Santa Justa,28942,Fuenlabrada,91 600 20 30,Privada,54,www.residenciasantajusta.com,40.290436,-3.812459,España,Camino deFregacedos 2
Residencia municipal de mayores de Fuenlabrada,28942,Fuenlabrada,91 607 12 43,Pública local,63,,40.288523,-3.812639,España,Calle VillaElena 21
"Residencia de 3ª edad San Esteban, S. L.",28944,Fuenlabrada,91 600 01 55,Privada,15,,40.284526,-3.786246,España,Calle Argentina 24-bajos
Residencia Galdama Fuenlabrada,28944,Fuenlabrada,91 615 42 61,Privada,175,www.residenciasdemadrid.es/fuenlabrada/,40.280184,-3.770671,España,Calle VillaElena 21
Caim Los Olivos,28140,Fuente el Saz de Jarama,91 620 12 60,Privada,19,www.primar.es,40.636213,-3.508316,España,Avenida deAragón 15
Residencia de 3ª edad Primar,28140,Fuente el Saz de Jarama,91 620 19 00 / 91 620 18 92,Privada,40,,40.636952,-3.507427,España,Avenida deAragón 21
Caim Los Olivos,28140,Fuente el Saz de Jarama,91 620 07 69,Privada,67,www.caimlosolivos.es,40.635365,-3.512233,España,Calle FélixRodríguezdelaFuente 2
Fundación Manzanares,28597,Fuentidueña de Tajo,91 872 84 86,Privada,53,,40.118985,-3.159995,España,Calle Mayor 13-15
Residencia Ítaca,28260,Galapagar,91 851 26 99 / 91 851 88 58,Privada,21,,40.614605,-4.008678,España,Calle ÁlvaroCunqueiro 18
Residencia Mi Casita,28260,Galapagar,91 858 25 18,Privada,21,www.residenciamicasita.com,40.569107,-3.995688,España,Calle Navamora 6
Residencia Santa Gema,28260,Galapagar,91 858 38 56,Privada,55,santagema.gruposantagema.com,40.576019,-4.011669,España,Calle Peraleda 9
Residencia Fátima,28260,Galapagar,91 858 42 40 / 91 858 44 36,Privada,96,www.residencia-fatima.com,40.574217,-4.00327,España,Calle Procesiones 44-48
Residencia de 3ª edad Antares,28260,Galapagar,91 859 70 51,Privada,25,www.residenciaantares.com,40.565285,-4.002372,España,Calle PuentedelRetamar 4
Residencia El Amanecer,28260,Galapagar,91 858 12 01,Privada,26,www.residenciaelamanecer.es,40.569854,-4.002147,España,Calle Rosales 4-ColoniaLaCanaleja
Valdesalud,28420,Galapagar,91 858 03 02,Privada,27,residenciavaldesalud.com,40.596325,-3.989553,España,Calle Cíes 22-LaNavata
Residencia de mayores Navasalud,28420,Galapagar,91 858 41 81,Privada,28,www.residencia-navasalud.es,40.599125,-3.987496,España,Calle ColadaCharcodelaHoya 10-D-LaNavata
Hotel de 3ª edad El Madroño,28420,Galapagar,91 858 71 04,Privada,50,www.hoteldemayores.com,40.593723,-3.985816,España,Calle LaPerdiz 12-LaNavata
Residencia de mayores Los Ángeles,28903,Getafe,91 696 11 91,Privada,180,www.residenciademayores.com,40.32102,-3.715585,España,Avenida delosÉbanos 65
Residencia de personas mayores Alzheimer Getafe,28903,Getafe,91 665 25 10,Pública autonómica,70,,40.31708,-3.717148,España,Avenida FranciscoFernándezOrdóñez 2
Sanitas Residencial Getafe,28905,Getafe,91 696 55 67,Privada,196,www.sanitas.es/sanitasresidencial/residencias-mayores/residencia-getafe,40.29041,-3.74782,España,Avenida ArcasdelAgua 15
AMAVIR Getafe,28905,Getafe,91 481 94 00,Privada,180,www.amavir.es/residencia-de-mayores-amavir-getafe,40.2897,-3.758479,España,Calle IslasCanarias 162
Residencia de personas mayores de Getafe,28905,Getafe,91 682 42 47,Pública autonómica,64,,40.297303,-3.741689,España,Avenida JuanCarlosI 4-SectorIII
Centro Geriátrico Madre Maravillas,28909,Getafe,91 684 70 85,Privada,54,www.mmaravillas.org,40.3236,-3.65622,España,Plaza delaIglesia 2
Residencia Los Nogales Cerro de los Ángeles,28909,Getafe,91 684 93 10,Privada,99,,40.325152,-3.661991,España,Calle Groenlandia 6
Casablanca Griñón,28971,Griñón,91 814 15 11,Privada,60,www.grupocasablanca.es/casablancaGR.htm,40.2222,-3.85161,España,Avenida Albéniz 8
Residencia Vitalia Griñón,28971,Griñón,91 860 94 99,Privada,150,www.vitaliahome.es/project/grinon,40.221176,-3.850278,España,Avenida Albéniz 2
Residencia de personas mayores municipal de Griñón,28971,Griñón,91 814 09 52 / 91 814 06 71,Pública local,78,,40.219166,-3853,España,Barrio Ermita 1
Residencia municipal Guadalix de la Sierra,28794,Guadalix de la Sierra,91 847 10 09,Pública local,58,www.asispa.org/servicios/residencias-asistidas/titularidad-publica-gestionadas-por-asispa/residencia-guadalix-d,40.786133,-3.693666,España,Calle Palenque 8
Residencia Fuenteverde,28440,Guadarrama,91 849 30 22,Privada,15,www.grupodelapuebla.es/residencia-fuenteverde,40.653196,-4.04674,España,Calle Acuario 3
Residencia 3ª edad Mañón,28440,Guadarrama,91 854 76 30,Privada,15,www.residenciamanon.com,40.67932,-4.09965,España,Calle AntonioMachado 22
Residencia La Jarosa,28440,Guadarrama,91 854 08 49,Privada,50,www.residencialajarosa.com,40.674911,-4.09324,España,Paseo delaAlameda 7
Sanitas Residencial Guadarrama,28440,Guadarrama,91 854 38 93,Privada,170,www.sanitas.es/sanitasresidencial/residencias-mayores/residencia-guadarrama,40.675645,-4.094051,España,Paseo delaAlameda 8
Residencia mixta de 3ª edad Guadarrama,28440,Guadarrama,91 854 07 83,Privada,30,www.residenciaguadarrama.es,40.667412,-4.081918,España,Paseo deMolinodelRey 31
Residencia Guadarrama El Escorial,28440,Guadarrama,91 854 35 44,Privada,90,www.guadarramaescorial.net,40.663373,-4.092164,España,Calle FuentedelEspino 51-Urb.LosBuiles
Centro de mayores La Tejera,28440,Guadarrama,91 849 37 57,Privada,49,www.residencialatejera.com,40.653354,-4.048267,España,Calle Géminis 15-Urb.LasCabezuelas
Residencia municipal de San Miguel Arcángel,28440,Guadarrama,91 854 77 22,Privada,46,,40.672617,-4.088008,España,Calle Panera 1
Residencia Virgen del Valle,28440,Guadarrama,91 851 88 10,Privada,26,,40.651315,-4.048455,España,Calle ValledelAlberche 6
Residencia de 3ª edad Los Ángeles,28440,Guadarrama,91 850 88 42,Privada,67,residencialosangelesguadarrama.com,40.648681,-4.04453,España,Calle ValledelAlberche 22
AMAVIR Humanes,28970,Humanes de Madrid,91 604 05 32,Privada,180,www.amavir.es/residencia-de-ancianos-madrid-amavir-humanes,40.246491,-3.815737,España,Avenida delosDeportes 14
DomusVi Leganés,28914,Leganés,91 648 42 53,Privada,180,www.domusvi.es/residencia-mayores-madrid-leganes,40.321169,-3.784687,España,Calle CésarGarcíaContonente 6
Residencia El Encinar,28914,Leganés,91 694 41 61,Pública autonómica,132,www.amavir.es/residencia-de-mayores-amavir-el-encinar,40.321911,-3.762064,España,Calle ConstitucióndeCádiz 5
Nuestra Señora de Butarque,28914,Leganés,91 693 85 13,Privada,180,www.residenciabutarque.es,40.318524,-3.759414,España,Calle Delco 10-CiudaddelAutomóvil
Residencia geriátrica Valdepelayos 67,28914,Leganés,91 693 00 58,Privada,18,,40.324444,-3.779769,España,Calle DiegoMartínezBarrio 65
Residencia para mayores Parque los Frailes,28914,Leganés,91 693 40 00,Pública autonómica,220,www.araliaservicios.es/centro/madrid-leganés-0,40.317781,-3.772798,España,Calle losFrailes 12
Residencia Los Balcones,28914,Leganés,91 498 75 07,Privada,128,www.losbalcones.es,40.327571,-3.780226,España,Calle Trigo 14
Pisos tutelados para personas mayores de Leganés,28917,Leganés,91 481 62 40,Pública autonómica,135,,40.357234,-3.785315,España,Calle Braganza 3-5
Vitalia Leganés,28919,Leganés,91 686 07 00,Privada,266,www.vitaliahome.es/project/leganes,40.343814,-3.751172,España,Calle MaríaMoliner 7
Residencia para la 3ª edad Virgen de Regla 3E,28752,Lozoyuela-Navas-Sieteiglesias,91 869 88 99 / 91 869 40 30 / 638 84 02 40,Privada,46,,40.930333,-3.626284,España,Calle PradosQuemados 10
Santa María del Monte Carmelo,28001,Madrid,91 435 16 60,Privada sin fin de lucro,99,www.residenciamontecarmelo.es,40.427758,-3.683551,España,Calle Ayala 33-35
Residencia Hermanitas de los Ancianos Desamparados,28001,Madrid,91 435 10 97 / 91 431 62 01,Privada sin fin de lucro,78,,40.42309,-3.685707,España,Calle Lagasca 17
Residencia geriátrica María Inmaculada,28002,Madrid,91 519 41 70 / 627 92 35 07,Privada,24,residenciageriatricamariainmaculada.com,40.440807,-3.674541,España,Calle Cartagena 120
Ballesol Príncipe de Vergara,28002,Madrid,91 411 99 30,Privada,302,ballesol.es/residencias-para-mayores-en-la-comunidad-de-madrid/ballesol-principe-de-vergara/,40.443538,-3.676885,España,Calle Cartagena 133
Residencia de 3ª edad SagradaFamilia,28002,Madrid,91 413 41 15,Privada,27,,40.450821,-3.6687,España,Calle LuisLarrainza 46bis
Sanitas Residencial El Viso,28002,Madrid,91 561 23 32,Privada,102,www.sanitas.es/sanitasresidencial/residencias-mayores/residencia-el-viso,40.449811,-3.678808,España,Calle RodríguezMarín 57
Caser Residencial Santa Hortensia,28002,Madrid,91 510 68 10,Privada,184,www.caseresidencial.es/santa-hortensia,40.444472,-3.663072,España,Calle SantaHortensia 46
Orpea Madrid Loreto,28003,Madrid,91 535 77 16,Privada,144,orpea.es/centros-residencias/residencia-ancianos-madrid-loreto,40.446434,-3.713216,España,Avenida ReinaVictoria 60-62
Residencia de Mayores Santa Engracia,28003,Madrid,91 990 77 20,Pública local,36,,40.440412,-3.700792,España,Calle SantaEngracia 118
Residencia de mayores Dos de Mayo,28004,Madrid,91 360 48 31,Privada,60,residenciadeancianoscg.com/nuestras-residencias/dos-de-mayo,40.427099,-3.705317,España,Calle Daoiz 8
Residencia Gravina,28004,Madrid,91 523 03 12,Privada,55,www.residenciagravina.com,40.422595,-3.69628,España,Calle Gravina 20
Residencia de mayores Madrid - Peñuelas,28005,Madrid,91 506 05 96,Pública autonómica,220,www.araliaservicios.es/centro/madrid-peñuelas,40.400993,-3.706638,España,Calle Arganda 9-11
Residencia Los Nogales Pontones,28005,Madrid,91 364 43 48,Privada,260,www.los-nogales.es/pontones-residencia-mayores-de-edad-madrid/,40.406924,-3.719561,España,Calle CobodeSegovia 4
Apartamentos municipales para mayores San Francisco El Grande,28005,Madrid,91 364 40 05,Pública local,68,,40.410992,-3.715068,España,Calle Jerte 1
Residencia Los Nogales - Imperial,28005,Madrid,91 364 82 55,Privada,252,www.los-nogales.es/nogales-imperial-residencia-mayores-madrid,40.405522,-3.716593,España,Calle SantaMaríaRealdeNieva s/n
Los Nogales La Paloma,28005,Madrid,91 365 03 03,Privada,99,www.los-nogales.es/la-paloma-residencia-mayores-madrid,40.40819,-3.710967,España,Calle Toledo 96
Hogar Residencia San Luis de los Franceses,28006,Madrid,91 431 28 00,Privada,70,www.residenciasanluis.com,40.432062,-3.68568,España,Calle ClaudioCoello 94
Fundación de Doña Fausta Elorz,28006,Madrid,91 309 96 50,Privada sin fin de lucro,120,www.fundacionelorz.org,40.431746,-3.675205,España,Calle CondedePeñalver 53
Residencia Los Nogales - Pacífico,28007,Madrid,91 434 19 40,Privada,441,www.los-nogales.es/pacifico-residencia-mayores-madrid/,40.399989,-3.674735,España,Calle CerrodelaPlata 3
Residencia La Purísima Concepción,28007,Madrid,91 551 78 44 / 91 551 14 55,Privada sin fin de lucro,156,www.fundacioncatalinasuarez.org,40.400107,-3.672762,España,Avenida CiudaddeBarcelona 85
Casa de Santa María,28007,Madrid,91 551 60 31 / 91 551 30 18,Privada,24,www.residenciasantamaria.es,40.406326,-3.669085,España,Avenida delMediterráneo 48-2ªplantay1ºAyB
Residencia de personas mayores Colegio de la Paz,28007,Madrid,91 409 09 43 / 91 409 16 11 / 91 409 11 64,Pública autonómica,80,,40.420467,-3.669259,España,Calle DoctorEsquerdo 44
GERIASA,28007,Madrid,91 557 22 30 / 669 40 18 90 / 669 40 18 89,Privada,185,www.geriasa.es,40.419481,-3.668867,España,Calle DoctorEsquerdo 63
Apartamentos municipales para mayores Retiro,28007,Madrid,91 557 13 19,Pública local,32,,40.414576,-3.667489,España,Calle JoséMartínezdeVelasco 22
Casasolar Santo Duque de Gandía,28008,Madrid,91 541 62 97,Privada sin fin de lucro,180,www.residenciacasasolar.es,40.432378,-3.734746,España,Calle AnicetoMarinas 114
Sanitas Residencial Jardines de Sabatini,28008,Madrid,900 81 82 65,Privada,75,www.sanitas.es/sanitasresidencial/residencias-mayores/residencia-jardines-de-sabatini,40.421738,-3.716249,España,Calle Arriaza 16
Residencia de ancianos Santa Teresa y San José,28008,Madrid,91 541 29 96,Privada,24,,40.423673,-3.713186,España,Plaza deEspaña 14
Sanitas Residencial Ferraz,28008,Madrid,91 544 22 48,Privada,73,www.sanitas.es/sanitasresidencial/residencias-mayores/residencia-ferraz,40.430492,-3.721402,España,Calle Ferraz 92
Residencia de Personas Mayores Goya,28009,Madrid,91 276 10 00,Pública autonómica,51,,40.424403,-3.669357,España,Calle DoctorEsquerdo 26
Asilo de ancianos - Hermanitas de los Pobres,28010,Madrid,91 319 20 96,Privada sin fin de lucro,94,,40.429563,-3.693756,España,"Calle Almagro 7(entradaporC/Zurbarán,4)"
Ballesol Francisco de Rojas,28010,Madrid,91 446 42 05,Privada,123,ballesol.es/residencias-para-mayores-en-la-comunidad-de-madrid/ballesol-francisco-de-rojas/,40.428637,-3.699442,España,Calle FranciscodeRojas 4
Ballesol Olavide,28010,Madrid,91 447 52 56,Privada,179,ballesol.es/residencias-para-mayores-en-la-comunidad-de-madrid/ballesol-olavide,40.432481,-3.699488,España,Calle JuandeAustria 9
Residencia San Vicente,28010,Madrid,91 445 75 14,Privada sin fin de lucro,50,,40.438253,-3.696379,España,Calle ModestoLafuente 11
Residencia Monte Hermoso,28011,Madrid,91 526 75 85,Privada,130,monte-hermoso.es,40.409007,-3.743019,España,Calle DoctorBlancoNájera 6
Residencia sacerdotal San Pedro,28015,Madrid,91 447 42 00,Privada sin fin de lucro,95,,40.430991,-3.705335,España,Calle SanBernardo 101
Nuestra Señora de Montserrat - Fundación benéfico social,28015,Madrid,91 447 12 50,Privada sin fin de lucro,96,residenciamontserrat.es,40.427538,-3.706413,España,Calle SanBernardo 79
Centro residencial de mayores Ave María,28016,Madrid,91 413 45 88,Privada,38,www.crmayoresavemaria.com,40.456914,-3.665656,España,Avenida delÁster 24
Residencia San Juan de Dios,28016,Madrid,91 344 00 20,Privada sin fin de lucro,49,residencia-sanjuandedios.es,40.453459,-3.68198,España,Calle HerrerosdeTejada 3
Residencia Maestro Lassalle,28016,Madrid,91 359 17 45,Privada,21,,40.462471,-3.673193,España,Calle MaestroLassalle 6
AMAVIR Ciudad Lineal,28017,Madrid,91 327 61 99,Privada,180,www.amavir.es/residencia-de-mayores-amavir-ciudad-lineal,40.425293,-3.629239,España,Calle GabrielMontero 3
Residencia para mayores Madrid Sur,28018,Madrid,91 380 78 70,Pública autonómica,140,www.domusvi.es/residencia-mayores-madrid-sur,40.387566,-3.660302,España,Calle JavierdeMiguel 42
Los Nogales Vista Alegre,28019,Madrid,91 472 00 20,Privada,98,www.los-nogales.es/vista-alegre-residencia-tercera-edad-madrid,40.389956,-3.732051,España,Calle VistaAlegre 4-6
AMAVIR Villaverde,28021,Madrid,91 505 52 00,Privada,180,www.amavir.es/residencia-de-mayores-amavir-villaverde,40.344387,-3.676679,España,Calle Berrocal 42
Residencia Villaverde Alzheimer,28021,Madrid,91 723 09 61,Pública autonómica,52,,40.356334,-3.686186,España,Carretera deVillaverdeaVallecas 38
Apartamentos Tutelados para personas mayores María Orúe,28021,Madrid,91 710 04 84,Pública autonómica,28,sanivida.es/project/pisos-tutelados-para-mayores/,40.353035,-3.686513,España,Calle MaríaOrúe 1A
Residencia de personas mayores Plata y Castañar,28021,Madrid,91 798 79 12,Pública autonómica,220,www.albertia.es/residencias/residencia-playa-y-castanar/,40.3527,-3.71927,España,Paseo PlatayCastañar 38
Residencia Geriátrica 3ª Edad Las Rosas Madrid,28022,Madrid,91 313 09 54 / 651 93 76 27,Privada,42,,40.425011,-3.609392,España,Calle Butrón 14
Residencia de ancianos Nuestra Señora del Pilar,28022,Madrid,91 741 17 62,Privada sin fin de lucro,55,,40.444197,-3.609889,España,Calle delaEsfinge 34
Residencia para la 3ª edad Virgen Llana,28022,Madrid,91 320 13 70,Privada,11,,40.442886,-3.614434,España,Calle SantaTecla 24
Orpea San Blas,28022,Madrid,91 775 99 91,Privada,180,orpea.es/centros-residencias/centro-dia-residencia-ancianos-madrid-san-blas,40.422658,-3.603967,España,Calle Zurich 16
Residencia de 3ª edad Retiro de Aravaca,28023,Madrid,91 307 06 08,Privada,47,www.retiroaravaca.com,40.460711,-3.780451,España,Calle AnaTeresa 1
Residencia de mayores Jardín de Aravaca,28023,Madrid,91 357 99 99,Privada,21,www.residenciageriatricajardindearavaca.com,40.460693,-3.782069,España,Calle AnaTeresa 11
Residencia Ana Teresa,28023,Madrid,91 307 06 01,Privada,,,40.460427,-3.781062,España,Calle AnaTeresa 5
Residencia Ardales,28023,Madrid,91 357 21 41,Privada,17,,40.460262,-3.782895,España,Calle Ardales 4
Residencia de 3ª edad Castalia,28023,Madrid,91 357 47 47,Privada,24,www.residenciadeancianos-madrid.com,40.459651,-3.782958,España,Calle Ardales 2
Residencia hogar San Enrique y Santa Rita,28023,Madrid,91 307 93 40 / 91 307 93 41,Privada sin fin de lucro,96,,40.469407,-3.796905,España,Calle ArenasyNavarro 16
Ecoplar Aravaca,28023,Madrid,91 740 05 66,Privada,200,www.ecoplar.com,40.464743,-3.783695,España,Calle BlancadeCastilla 8
Centro Clínico Geriátrico Pinar de Aravaca,28023,Madrid,91 307 07 07,Privada,119,pinardearavaca.es,40.461227,-3.769417,España,Calle Camarines 2
Residencia El Pardo de Aravaca,28023,Madrid,91 740 04 90,Privada,88,www.elpardodearavaca.com,40.470473,-3.769039,España,Calle DaríoAparicio 33-35
Orpea Madrid Aravaca,28023,Madrid,91 387 87 90,Privada,240,orpea.es/centros-residencias/residencia-ancianos-madrid-aravaca,40.446777,-3.78057,España,Avenida delTalgo 53
Residencia Santísima Trinidad,28023,Madrid,91 357 22 68,Privada sin fin de lucro,54,www.josefinas-trinitarias.org,40.46112,-3.774748,España,Avenida OsaMayor 8
Residencia Juan XXIII,28023,Madrid,91 372 96 07,Privada,40,www.residenciajuan23.com,40.467425,-3.800898,España,Calle Proción 10
Sanitas Residencial La Florida,28023,Madrid,91 740 03 86,Privada,130,www.sanitas.es/sanitasresidencial/residencias-mayores/residencia-florida,40.468003,-3.795599,España,Calle ValledeToranzo 3-5
Casablanca El Plantío,28023,Madrid,91 372 81 02,Privada,59,www.grupocasablanca.es/casablancaPL.htm,40.47134,-3.826464,España,Avenida Victoria 74
Casablanca Madrid,28023,Madrid,91 307 71 77,Privada,71,www.grupocasablanca.es/residencias/casablanca-madrid,40.468989,-3.820706,España,Avenida Victoria 36
Residencia Los Enebros,28023,Madrid,91 372 97 74,Privada,38,,40.473572,-3.832842,España,Avenida Victoria 120
Residencia La Florida,28023,Madrid,91 372 94 98 / 91 372 90 05 / 618 31 70 28,Privada,23,www.residencialaflorida.eu,40.470849,-3.813591,España,Calle Zarauz 6-Urb.LaFlorida
Sagrada Familia,28024,Madrid,91 518 26 40,Privada,67,,40.397662,-3.769367,España,Calle Villaviciosa 24
Residencia geriátrica María Auxiliadora,28025,Madrid,91 465 18 23 / 91 465 64 22,Privada,71,maria-auxiliadora.es,40.376821,-3.749433,España,Calle EugeniadeMontijo 79
Residencia de mayores Gran Residencia,28025,Madrid,91 462 58 00,Pública autonómica,460,,40.381984,-3.734634,España,Calle GeneralRicardos 177
Residencia de personas mayores Vista Alegre,28025,Madrid,91 462 94 14,Pública autonómica,204,,40.383731,-3.739105,España,Calle GeneralRicardos 177
Residencia y apartamentos tutelados Usera,28026,Madrid,91 330 72 00,Pública autonómica,160,www.domusvi.es/residencia-mayores-madrid-usera,40.378882,-3.709827,España,Calle CristodelaVictoria 247
Mi Casa - Hermanitas de los Pobres,28028,Madrid,91 574 29 88,Privada sin fin de lucro,93,,40.422822,-3.668711,España,Calle DoctorEsquerdo 49
Residencia municipal Margarita Retuerto,28028,Madrid,91 724 14 48,Pública local,90,www.asispa.org/servicios/residencias-asistidas/titularidad-publica-gestionadas-por-asispa/residencia-margarita-,40.43414,-3.663665,España,Calle FranciscoAltimiras 2
Residencia de 3ª edad Vuestra Casa II,28028,Madrid,91 725 79 04,Privada,27,,40.434197,-3.668279,España,Calle MartínezIzquierdo 37
Residencia La Guindalera,28028,Madrid,91 713 17 70,Privada sin fin de lucro,56,,40.438689,-3.668678,España,Calle PintorMorenoCarbonero 15
Residencia de 3ª edad Vuestra Casa I,28028,Madrid,91 355 24 71,Privada,29,,40.430989,-3.666191,España,Calle Roma 16-18
Residencia Isabel La Católica,28029,Madrid,91 732 18 80,Pública autonómica,218,www.araliaservicios.es/centro/madrid-ventilla,40.472132,-3.694871,España,Calle JoaquínDicenta 27
Residencia Jesús Nazareno y los Dolores,28029,Madrid,91 315 55 45 / 91 315 55 46,Privada sin fin de lucro,95,,40.47279,-3.689911,España,Calle Magnolias 105
Albertia Moratalaz,28030,Madrid,91 324 68 00,Privada,190,www.albertia.es/residencias/albertia-moratalaz,40.399677,-3.630679,España,Calle HaciendadePavones 261
Residencia Fundación Santa Lucía - Moratalaz,28030,Madrid,91 773 04 83,Privada sin fin de lucro,70,,40.400399,-3.629447,España,Calle LuisdeHoyosSainz 196
Fundación Residencia San Francisco de Paula,28030,Madrid,91 371 01 58,Privada,74,,40.4017,-3.631745,España,Calle Valdebernardo 29
Residencia Castellar,28031,Madrid,91 222 01 50 / 91 222 01 41 / 91 380 87 82,Privada,34,www.residenciascastellar.com,40.379216,-3.622671,España,Calle SierraVieja 73
Centro Alzheimer Fundación Reina Sofía,28031,Madrid,91 385 23 00,Pública autonómica,156,,40.372675,-3.627503,España,Calle Valderrebollo 5
Los Nogales Santa Eugenia,28031,Madrid,91 305 29 90,Privada,286,www.los-nogales.es/santa-eugenia-residencia-ancianos-madrid,40.381994,-3.607401,España,Calle Zazúar 15
Residencia Adolfo Suárez,28032,Madrid,91 322 09 00,Pública autonómica,280,,40.418859,-3.614082,España,Calle delaRávena 18
AMAVIR Valdebernardo,28032,Madrid,91 301 66 60,Privada,180,www.amavir.es/residencia-de-ancianos-madrid-amavir-valdebernardo,40.396413,-3.626149,España,Calle LaderadelosAlmendros 44
Los Nogales Hortaleza,28033,Madrid,91 863 64 58,Privada,365,www.los-nogales.es/hortaleza-residencia-mayores-madrid,40.475764,-3.642139,España,Calle Alcobendas 12
DomusVi Arturo Soria,28033,Madrid,91 300 13 90,Privada,145,www.domusvi.es/residencia-mayores-madrid-arturo-soria,40.463405,-3.660257,España,Calle DuquesadeCastrejón 18-20
Los Robles Gerhoteles Madrid,28033,Madrid,91 744 52 80,Privada,170,www.losroblesgerhoteles.com,40.464004,-3.660197,España,Calle DuquesadeCastrejón 19
Residencia Jazmín,28033,Madrid,91 383 65 20,Pública local,59,www.asispa.org/servicios/residencias-asistidas/titularidad-publica-gestionadas-por-asispa/residencia-jazmin-_ma,40.478607,-3.667022,España,Calle Jazmín 48
Residencia Avenida San Luis,28033,Madrid,91 382 20 92,Privada,99,residenciaavenidasanluis.com,40.472452,-3.653224,España,Avenida SanLuis 58
Residencia de 3ª edad Atenea - Mirasierra,28034,Madrid,91 731 05 70,Privada,44,residenciaatenea.es,40.487332,-3.705937,España,Avenida CardenalHerreraOria 162
Residencia para personas mayores Nuestra Señora del Camino,28034,Madrid,91 736 47 94,Privada sin fin de lucro,71,www.fundacionnscamino.org,40.494977,-3.715905,España,Calle ColladodeTirobarra 6
Sanitas Residencial Mirasierra,28034,Madrid,91 735 32 70,Privada,125,www.sanitas.es/sanitasresidencial/residencias-mayores/residencia-mirasierra,40.493033,-3.707258,España,Calle Nuria 40
Residencia para mayores Mirasierra,28034,Madrid,91 734 14 10 / 91 734 16 26 / 91 734 08 76,Pública autonómica,220,www.domusvi.es/residencia-mayores-madrid-mirasierra,40.4908,-3.71436,España,Calle PorteradelCura 1
Centro geriátrico Ecoplar Mirasierra,28034,Madrid,91 387 60 50,Privada,75,www.ecoplar.com,40.494739,-3.717871,España,Calle VentisquerodelaCondesa 46
Sanitas Residencial Puerta de Hierro,28035,Madrid,91 398 00 17,Privada,45,www.sanitas.es/sanitasresidencial/residencias-mayores/residencia-puerta-hierro,40.461209,-3.724388,España,Calle AlfonsoFernándezClausells 2
Residencia Los Nogales Puerta de Hierro,28035,Madrid,91 789 20 09,Privada,220,www.los-nogales.es/puerta-de-hierro-residencia-de-ancianos-madrid,40.474177,-3.721053,España,Calle CésarManrique 11
Ballesol Mirasierra,28035,Madrid,91 738 90 22,Privada,232,ballesol.es/residencias-para-mayores-en-la-comunidad-de-madrid/ballesol-mirasierra/,40.488923,-3.715938,España,Calle ColladodeCerroMalejo 5-7
Residencia Fundación Sagrada Familia,28035,Madrid,91 316 65 66,Privada,46,www.fundacionsf.es/?page_id=53,40.46405,-3.723723,España,Calle IsidroDompablo 10
Residencia Padre Eladio,28035,Madrid,91 373 37 67,Privada sin fin de lucro,65,www.josefinas-trinitarias.org,40.475157,-3.727505,España,Calle IslasBikini 6
Residencia Sagrada Familia,28035,Madrid,91 316 05 42 / 91 386 20 65,Privada,30,www.fundacionsf.es/?page_id=58,40.468399,-3.725035,España,Calle ManuelNieto 1
Residencia Santísima Virgen y San Celedonio,28036,Madrid,91 457 19 60,Privada,164,www.fsvsc.es,40.456673,-3.683326,España,Calle CondesdeVal 11
Residencia Santa Filipina,28036,Madrid,91 767 22 76,Privada,32,,40.469916,-3.676194,España,Avenida deBurgos 4
"Clínica Geriátrica Imbea - Morejón, S. A.",28036,Madrid,91 359 56 00,Privada,30,www.residenciaimbea.com,40.463096,-3.681242,España,Calle MenéndezPidal 25
Centro residencial Valmonte,28036,Madrid,91 458 48 00,Privada,140,www.valmonte.es,40.45668,-3.6832,España,Calle RomeroGirón 9
AMAVIR Puente de Vallecas,28038,Madrid,91 328 70 70,Privada,180,www.amavir.es/residencia-de-ancianos-madrid-amavir-puente-de-vallecas,40.402346,-3.658811,España,Calle BaltasarSantos 2
Pisos tutelados para personas mayores,28038,Madrid,91 430 38 81,Pública autonómica,45,,40.401912,-3.657431,España,Calle BaltasarSantos 6
Residencia de personas mayores de Vallecas,28038,Madrid,91 779 14 40,Pública autonómica,173,,40.394523,-3.647456,España,Calle BenjamínPalencia 25
Residencia Santa Matilde,28039,Madrid,91 450 82 82,Privada,77,,40.449996,-3.70812,España,Calle SantaMatilde 7
Los Nogales Reina Victoria,28040,Madrid,91 534 60 00,Privada,98,www.los-nogales.es/reina-victoria-geriatrico-mayores-madrid/,40.447533,-3.710797,España,Calle JuanMontalvo 20-22
Residencia Justo Dorado,28040,Madrid,91 535 86 20,Privada,54,www.residenciajustodorado.com,40.448566,-3.712219,España,Calle PedroJustoDorado 5
Sanatorio geriátrico Los Álamos,28040,Madrid,91 459 11 50 / 91 459 86 55,Privada,34,www.residencialosalamos.es,40.454937,-3.717732,España,Calle Pirineos 37
Residencia Rafael Alberti,28040,Madrid,91 144 06 34,Privada,100,www.asociacion-chf.com,40.453887,-3.719232,España,Calle Pirineos 55
AMAVIR Usera,28041,Madrid,91 500 55 50,Privada,180,www.amavir.es/residencia-de-ancianos-madrid-amavir-usera,40.373175,-3.69411,España,Avenida LaPerla 3
Residencia Orcasur,28041,Madrid,91 369 92 34,Pública autonómica,64,,40.366186,-3.700592,España,Calle Salobreña 2
Residencia de personas mayores San José,28041,Madrid,91 317 54 67 / 91 317 54 68,Pública autonómica,48,,40.365148,-3.702439,España,Calle Trévelez 1
Sanitas Residencial Alameda,28042,Madrid,91 747 45 04,Privada,118,www.sanitas.es/sanitasresidencial/residencias-mayores/residencia-alameda,40.459641,-3.587407,España,Paseo AlamedadeOsuna 78-B
Residencia Montserrat Caballé,28042,Madrid,91 748 15 52,Privada sin fin de lucro,136,,40.466261,-3.590649,España,Calle BahíadeSantaPola 2
"Residencia de 3ª edad La Santina Dos, S. L.",28042,Madrid,91 320 03 54,Privada,50,,40.44999,-3.610482,España,Calle IsladeCuba 2
Residencia de ancianos Don Bosco,28042,Madrid,91 305 50 87,Privada sin fin de lucro,62,,40.476049,-3.586676,España,Calle PlayadeRiazor 39
Residencia de 3ª edad Años Dorados III,28043,Madrid,91 388 22 62 / 91 388 05 48,Privada,36,,40.464132,-3.650151,España,Calle AgustínCalvo 19
Residencia Abedul II,28043,Madrid,91 759 84 56,Privada,29,residenciaabedul.es,40.464056,-3.650933,España,Calle AgustínCalvo 15
Residencia Las Azaleas,28043,Madrid,91 300 49 51,Privada,67,www.asispa.org/servicios/residencias-asistidas/titularidad-de-asispa/residencia-las-azaleas-_madrid,40.455438,-3.65273,España,Calle BuesodePineda 52
Centro Geriátrico Hortaleza,28043,Madrid,91 388 41 55 / 652 91 91 45,Privada,96,www.residenciadeancianoscg.com,40.466281,-3.630633,España,Calle delasPedroñeras 38
Residencia El Jardín,28043,Madrid,696 25 60 63,Privada,25,www.residencia-eljardin.com,40.461216,-3.658991,España,Calle LópezdeHoyos 384
Caser Residencial Arturo Soria,28043,Madrid,91 716 00 36,Privada,140,www.caseresidencial.es/arturo-soria,40.454244,-3.651427,España,Calle PuertodeSantaMaría 15
Residencia Miraflores II,28043,Madrid,91 300 44 42,Privada,72,www.centrogeriatricomiraflores.com,40.457943,-3.652128,España,Calle Ulises 44
Residencia Fundación Sagrada Familia,28043,Madrid,91 388 41 19,Privada,35,www.fundacionsf.es/?page_id=19,40.458315,-3.651033,España,Calle Ulises 60
Centro Residencial Sanitas Carabanchel,28044,Madrid,91 508 11 10,Privada,224,www.sanitas.es/sanitasresidencial/residencias-mayores/residencia-carabanchel,40.37275,-3.74463,España,Calle AntoniaRodríguezSacristán 10
Orpea Madrid Buenavista,28044,Madrid,91 511 04 20,Privada,196,orpea.es/centros-residencias/residencia-ancianos-madrid-buenavista,40.372854,-3.742862,España,Calle AntoniaRodríguezSacristán 14
Residencia Virgen de la Paloma,28044,Madrid,91 706 31 33,Privada,11,,40.379659,-3.763995,España,Calle ÁrboldelCielo 38
Ballesol Latina,28044,Madrid,91 710 81 90,Privada,180,ballesol.es/residencias-para-mayores-en-la-comunidad-de-madrid/ballesol-latina/,40.381249,-3.764778,España,Calle Casuarina 4
Residencia de 3ª edad Santa María del Sagrario,28044,Madrid,91 508 69 41,Privada,41,residenalba.net/alba-carabanchel,40.373606,-3.751338,España,Plaza delaEmperatriz 12
Hogar Santa Teresa Jornet,28044,Madrid,91 508 91 08 / 91 508 58 49,Privada sin fin de lucro,143,,40.372459,-3.749811,España,Calle DuquesadeTamames 8
Ballesol Pasillo Verde,28045,Madrid,91 506 22 70,Privada,278,ballesol.es/residencias-para-mayores-en-la-comunidad-de-madrid/ballesol-pasillo-verde,40.396975,-3.685883,España,Calle Amaltea 25
Residencia Nuestra Señora del Perpetuo Socorro,28045,Madrid,91 506 05 60 / 91 539 19 84,Privada sin fin de lucro,93,www.residenciaperpetuosocorro.es,40.402737,-3.689147,España,Calle Áncora 42
AMAVIR Arganzuela,28045,Madrid,91 506 23 56,Privada,180,www.amavir.es/residencia-de-ancianos-madrid-amavir-arganzuela,40.386048,-3.689044,España,Calle Embajadores 211
Residencia Militar de Acción Social de Atención a Mayores Virgen del Carmen,28047,Madrid,91 364 60 00,Pública estatal,160,,40.387745,-3.745867,España,Camino delosIngenieros 2
Residencia de 3ª edad Comunidad Marías,28047,Madrid,91 461 77 06,Privada sin fin de lucro,10,,40.379501,-3.748957,España,Avenida NuestraSeñoradeFátima 100-3º
Orpea Madrid Carabanchel,28047,Madrid,91 422 08 80,Privada,160,orpea.es/centros-residencias/centro-dia-residencia-ancianos-madrid-carabanchel,40.385279,-3.748959,España,Calle NuestraSeñoradelaLuz 74
GERIATEL Aluche,28047,Madrid,91 509 98 84,Privada,55,www.geriatel.es/nuestras-residencias/geriatel-aluche/,40.389068,-3.753566,España,Calle Ocaña 193
Residencia Nuestra Señora del Carmen,28049,Madrid,91 734 34 50,Pública autonómica,422,,40.539094,-3.694235,España,Carretera Cantoblanco 3
Residencia Casa San Luis Gonzaga - Los Almendros,28049,Madrid,91 734 74 77,Privada sin fin de lucro,45,,40528,-3.6935,España,Carretera deColmenarViejo Km.14.4
Residencia Doctor González Bueno,28049,Madrid,91 734 63 00 / 91 734 77 64 / 91 734 34 54,Pública autonómica,617,,40.525711,-3.688041,España,Carretera deColmenarViejo Km.13.5
Residencia de mayores de Manoteras,28050,Madrid,91 766 52 22,Pública autonómica,300,,40.489006,-3.668342,España,Calle Oña 3
Orpea Madrid Sanchinarro,28050,Madrid,91 750 21 38,Privada,180,orpea.es/centros-residencias/centro-dia-residencia-ancianos-madrid-sanchinarro,40.50194,-3.656316,España,Calle PadresDominicos 2
Residencia Ensanche de Vallecas,28051,Madrid,91 494 86 77,Pública autonómica,160,www.araliaservicios.es/centro/madrid-ensanche-vallecas,40.36886,-3.618639,España,Avenida CerroMilano 1
DomusVi Albufera,28053,Madrid,91 757 05 10,Privada,143,www.domusvi.es/residencia-de-mayores-en-madrid-albufera,40.39179,-3.667929,España,Calle SierraAlcubierre 8
Ballesol Majadahonda,28221,Majadahonda,91 639 56 11,Privada,133,ballesol.es/residencias-para-mayores-en-la-comunidad-de-madrid/ballesol-majadahonda/,40.479588,-3.859243,España,Calle Cierzo 7-ColoniaAiresolI
Centro Tercera Edad San Luis Gonzaga,28221,Majadahonda,91 634 00 76,Privada,202,www.residenciasanluisgonzaga.es,40.462636,-3.86466,España,Calle MarEgeo 51
Residencia Valle de la Oliva,28222,Majadahonda,91 679 99 63,Pública local,130,www.albertia.es/residencias/albertia-valle-de-la-oliva/,40.452309,-3.876877,España,Calle ManueldeFalla 35
Residencia Ponderosa Real,28410,Manzanares el Real,91 857 38 38,Privada,91,www.ponderosareal.com,40.724243,-3.939454,España,Avenida Maderuelos 5
Orpea Meco,28880,Meco,91 886 16 66,Privada,147,orpea.es/centros-residencias/centro-dia-residencia-ancianos-alcala-henares,40.548354,-3.326857,España,Calle Roble 11
Residencia municipal El Perpetuo Socorro,28792,Miraflores de la Sierra,91 844 33 55,Pública local,28,,40811,-3.76246,España,Calle Crucero s/n
Residencia Isla de Kos,28710,Molar (El),91 841 08 12,Privada,90,www.isladekos.com,40.730741,-3.582476,España,Avenida deMadrid 8
Casa de ancianos Hermanitas de los Pobres,28460,Molinos (Los),91 855 16 80,Privada sin fin de lucro,36,,40.707672,-4.083757,España,Calle VirgendelEspino 1
Residencia municipal Nazaret,28190,Montejo de la Sierra,91 869 72 80,Pública local,58,,41.060158,-3.529068,España,Calle Cruces 2
Residencia Nuestra Señora del Sagrario,28950,Moraleja de Enmedio,91 609 40 09 / 91 609 40 12,Privada,80,www.residencianssagrario.es,40.259947,-3.864408,España,Avenida deArroyomolinos 3
Residencia Nuestra Señora de la Montaña II,28950,Moraleja de Enmedio,91 600 50 30,Privada,23,www.residencianuestrasenoradelamontana.es,40.268986,-3.878887,España,Urbanización LasColinas 8
Residencia Fuente de Salud,28411,Moralzarzal,91 857 61 57 / 91 857 81 21,Privada,37,www.residenciafuentesalud.es,40.6738,-3.9717,España,Calle deEspaña 3
Residencia Bellas Vistas Moralzarzal,28411,Moralzarzal,91 857 41 54,Privada,48,,40.707435,-3.955607,España,Calle ElGamonal 3
Centro para mayores Santa Isabel,28411,Moralzarzal,91 842 10 99,Privada,48,www.cpmsantaisabel.com,40.675421,-3.970554,España,Calle Valleja 30
Residencia de ancianos Virgen de la Antigua - Fundación Mac-Crohon,28530,Morata de Tajuña,91 873 00 54,Privada,98,,40.227415,-3.43646,España,Calle Asilo 2
Residencia Isla de Taray,28530,Morata de Tajuña,91 873 13 28,Privada sin fin de lucro,214,,40.2309,-3.40223,España,Carretera deMorata-PeralesdeTajuña Km.3.3
Residencia La Torre,28530,Morata de Tajuña,91 873 01 71 / 91 873 03 64,Privada,88,www.residencialatorre.es,40.225087,-3.437335,España,Calle delCarmen 37
Residencia Coímbra Park,28935,Móstoles,91 645 56 00 / 91 645 59 99,Privada,34,www.residenciacoimbrapark.com,40.31457,-3.924784,España,Calle Arizónicas 14
Residencia de personas mayores Parque Coímbra,28935,Móstoles,91 646 18 93,Pública autonómica,220,,40.3082,-3.93185,España,Avenida delosSauces 55
Residencia de 3ª edad Alameda Coímbra,28935,Móstoles,91 647 85 33,Privada,28,,40.310183,-3.924941,España,Calle Eucalipto 10
Residencia Las Camelias,28935,Móstoles,91 613 23 81,Privada,231,www.bastondeoro.com/residencia-las-camelias.html,40.329208,-3.882831,España,Avenida Olímpica 36-ElSoto
DomusVi Ciudad de Móstoles,28935,Móstoles,91 648 01 46,Privada,180,www.domusvi.es/residencia-ancianos-madrid-mostoles-mostoles,40.310454,-3.87891,España,Calle RíoSegura 29
Residencia para personas mayores de Móstoles,28938,Móstoles,91 664 76 67,Pública local,35,,40.320291,-3.865316,España,Calle JuanXXIII 6
Residencia municipal Virgen de la Concepción,28600,Navalcarnero,91 811 48 82,Pública local,60,,40.291808,-4.01564,España,Plaza Buenavista 29
Residencia de 3ª edad La Asunción,28600,Navalcarnero,91 811 12 12,Privada,78,www.grupocasaverde.com/centro-para-mayores-casaverde-la-asuncion,40.293394,-4.010097,España,Paseo delaEstación 18
Residencia Nava Real,28600,Navalcarnero,91 737 20 42 / 677 34 46 20,Privada,173,www.residencianavareal.com,40.290628,-4.008292,España,Ronda deSanJuan 11
Residencia La Aurora,28600,Navalcarnero,91 811 11 64,Privada,177,www.la-aurora.es,40.2943,-4.01007,España,Paseo DonMigueldeRibagordaGómez 1
Casaverde Navalcarnero,28600,Navalcarnero,91 811 24 93,Privada,112,www.grupocasaverde.com/centro-casaverde-navalcarnero,40.286425,-4.006576,España,Calle JoséMaríaLópezMalla 3
Residencia municipal Mariana de Austria,28600,Navalcarnero,91 810 11 50,Pública local,45,,40.289954,-4.01423,España,Calle LaDoctora 8
Residencia de 3ª edad - Asociación Rosas del Camino,28600,Navalcarnero,91 811 10 01 / 91 811 10 59,Privada,30,perso.wanadoo.es/rosasdelcamino,40.283836,-4.011903,España,Calle SanRoque 77
Residencia de Navalcarnero,28600,Navalcarnero,91 811 15 11,Pública autonómica,120,,40.294593,-3.996781,España,Avenida VíctimasdelTerrorismo s/n
Residencia de 3ª edad Navas del Rey,28695,Navas del Rey,91 865 03 80 / 91 865 03 95,Privada,28,,40.387586,-4.251209,España,Calle AparejadorPedrodeTolosa 1
Residencias Los Jardines de Navas,28695,Navas del Rey,91 865 03 11,Privada,40,,40.383345,-4.241357,España,Calle SandroPertini 8
Residencia Bellaescusa,28570,Orusco de Tajuña,91 876 12 02,Privada,152,www.residenciabellaescusa.com,40.286949,-3.206878,España,Calle MiguelHernández 1
Centro Asistencial GEROINNOVA MIRAMADRID,28860,Paracuellos de Jarama,91 230 42 00,Privada,170,miramadrid.geroinnova.com,40.502456,-3.513028,España,Calle GaspardeMorales 1
Residencia de 3ª edad Ermita,28981,Parla,91 699 93 99,Privada,30,,40.234486,-3.773634,España,Calle Orquídea 5
Residencia geriátrica lunion Parla,28982,Parla,91 664 42 09,Privada,180,sociosanitario.ilunion.com/servicios/centros-residenciales/comunidad-de-madrid-madrid/parla-residencia-para-mayores-y-centro-de,40.230513,-3.762052,España,Calle FelipeII 23
Vitalia Parla,28982,Parla,91 283 01 90,Privada,165,www.vitaliahome.es/project/parla/,40.23244,-3.767879,España,Calle FernandoIIIElSanto 17
Residencia de personas mayores de Parla,28982,Parla,91 698 51 61,Pública autonómica,64,,40.241405,-3.760096,España,Calle Zuloaga 2
Residencia municipal de mayores de AMAVIR Patones,28189,Patones,91 843 21 50,Pública local,90,www.amavir.es/residencias-de-mayores-amavir-patones,40.851707,-3.487649,España,Calle CanaldeIsabelII 23
Residencia San Miguel,28723,Pedrezuela,91 843 48 65,Privada,42,www.sanmiguelpedrezuela.es,40.743901,-3.599472,España,Paseo delaErmita 28
Gerontos Pedrezuela,28723,Pedrezuela,91 843 37 80,Privada,44,www.gerontos.com,40.743291,-3.606735,España,Calle Eras 96
Residencia Las Fuentes,28723,Pedrezuela,91 843 37 80,Privada,95,,40.746364,-3.600592,España,Calle Fuente 44
Residencia Bellas Vistas,28696,Pelayos de la Presa,91 864 42 38 / 91 864 41 51,Privada,120,,40.358592,-4.333794,España,Avenida MarcialLlorente 37
Centro de mayores El Chaflán,28696,Pelayos de la Presa,91 864 42 00,Privada,28,www.residenciaelchaflan.com,40.358763,-4.334775,España,Calle MarcialLlorente 47
Orpea Pinto II,28320,Pinto,91 692 69 60,Privada,144,orpea.es/centros-residencias/residencia-ancianos-madrid-pinto-ii,40.241046,-3.69061,España,Camino deSanMartíndelaVega 5
Residencia Dolores Soria,28320,Pinto,608 81 09 70,Pública local,60,,40.256742,-3.6989,España,Calle JoaquínTurina 2
Orpea Pinto I,28320,Pinto,91 692 86 30,Privada,160,orpea.es/centros-residencias/centro-dia-residencia-ancianos-pinto-i,40.240875,-3.694609,España,Calle SanMartín 20
Residencia Valderey,28223,Pozuelo de Alarcón,91 351 32 85,Privada,15,www.valderey.es,40.419423,-3.841079,España,Calle CiudadReal 18
La Atalaya,28223,Pozuelo de Alarcón,91 352 14 45,Privada sin fin de lucro,42,www.misionerasinmaculadaconcepcion.es,40.432934,-3.813851,España,Camino deAlcorcón 2
Fundación San Diego y San Nicolás,28223,Pozuelo de Alarcón,91 352 07 44 / 91 352 07 45,Privada,96,,40.436853,-3.821918,España,Avenida deMajadahonda 4
Residencia La Salud,28223,Pozuelo de Alarcón,91 711 00 25 / 91 711 85 16,Privada,44,www.residencialasalud.com,40.406988,-3.779266,España,Calle ManuelRoses 13
Residencia 3ª edad Prado del Rey,28223,Pozuelo de Alarcón,636 69 37 07,Privada,27,,40.404647,-3.779446,España,Calle PíoMillaAndrés 5
Residencia de 3ª edad Malvarrosa,28223,Pozuelo de Alarcón,91 518 14 64 / 91 502 27 73,Privada,17,www.residenciageriatricamalvarrosa.com,40.402401,-3.77835,España,Calle PíoMillaAndrés 33
Ballesol Pozuelo,28224,Pozuelo de Alarcón,91 352 55 20 / 91 352 40 79,Privada,257,ballesol.es/residencias-para-mayores-en-la-comunidad-de-madrid/ballesol-pozuelo/,40.451626,-3.809275,España,Calle Arquitectura 116-118
Residencia Alarcón,28224,Pozuelo de Alarcón,91 351 09 18 / 91 715 10 91,Privada,30,www.residenciaalarcon.com,40.443765,-3.798652,España,Calle Caridad 34
Residencia geriátrica Las Praderas,28224,Pozuelo de Alarcón,91 352 00 82,Privada,100,www.residencialaspraderas.com,40.43717,-3.800058,España,Carretera deHúmera 69
AMAVIR Pozuelo,28224,Pozuelo de Alarcón,91 799 13 92 / 902 10 09 99,Privada,180,www.amavir.es/residencia-de-ancianos-madrid-amavir-pozuelo,40.438527,-3.805132,España,Paseo delasNaciones 1
Residencia Manuel Herranz,28224,Pozuelo de Alarcón,91 352 19 45,Privada sin fin de lucro,84,,40.448068,-3.796783,España,Calle GarcíaMartín 25
Residencia Casa Jardín Pozuelo,28224,Pozuelo de Alarcón,619 06 04 90,Privada,21,www.residenciacasajardin.es,40.451918,-3.796343,España,Avenida LeopoldoCalvoSoteloBustelo 25
DomusVi Quijorna,28693,Quijorna,91 816 88 72 / 91 816 89 36,Privada,110,www.domusvi.es/residencia-de-mayores-madrid-quijorna,40.433307,-4.056359,España,Camino delaCharneca 25
Residencia Santa Helena,28815,Ribatejada,91 879 19 67,Privada,33,www.residenciamayoressantahelena.com,40.668213,-3.390293,España,Carretera deAjalvir(M-113) 7
Casablanca Rivas,28521,Rivas-Vaciamadrid,91 499 77 38,Privada,104,www.grupocasablanca.net/centros-del-grupo/casablanca-rivas/,40.337671,-3.522267,España,Calle Goya 21
Residencia GERIATEL Rivas,28523,Rivas-Vaciamadrid,91 192 21 35,Privada,112,www.geriatel.es,40.375053,-3.534443,España,Paseo delasProvincias 1
Residencia municipal de Robledillo de la Jara,28194,Robledillo de la Jara,91 868 72 38,Pública local,13,,40.953931,-3.525083,España,Calle Fuente 5
Residencia La Suiza Santa Rita,28294,Robledo de Chavela,91 899 58 37 / 91 899 80 66,Privada,78,,40.511155,-4.243246,España,Calle Berna 4-Urb.LaSuizaEspañola
Las Golondrinas,28294,Robledo de Chavela,91 899 85 41,Privada,58,geriatricalasgolondrinas.es,40.520821,-4.253372,España,Calle MigueldeCervantes 40
Residencia Montesalud,28232,Rozas de Madrid (Las),91 636 99 00,Privada,150,www.montesalud.com,40.535237,-3.942391,España,Calle Azor 2-Urb.MolinodelaHoz
Orpea Las Rozas,28232,Rozas de Madrid (Las),91 710 59 37,Privada,180,orpea.es/centros-residencias/centro-dia-residencia-ancianos-las-rozas,40.505346,-3.879865,España,Calle ClaraCampoamor 2
Residencia Las Rozas - Reina Sofía,28232,Rozas de Madrid (Las),91 637 40 12,Pública autonómica,504,,40.517179,-3.885358,España,Carretera deACoruña Km.21.5
Riosalud,28232,Rozas de Madrid (Las),91 630 20 13,Privada,300,www.riosalud.es,40.531967,-3.94341,España,Camino Real 2-Urb.MolinodelaHoz
Vitalia Las Rozas,28290,Rozas de Madrid (Las),91 630 47 00,Privada,246,www.vitaliahome.es/project/las-rozas/,40.542725,-3.9043,España,Calle Chile 16
Sanitas Residencial Las Rozas,28290,Rozas de Madrid (Las),91 631 92 71,Privada,133,www.sanitas.es/sanitasresidencial/residencias-mayores/residencia-las-rozas,40.533736,-3.903171,España,Avenida deAtenas 5
Residencia de 3ª edad Las Matas,28290,Rozas de Madrid (Las),91 630 10 29,Privada,177,www.residencialasmatas.es,40.560842,-3.897475,España,Calle Monte 11-Urb.LasMatas
Orpea Punta Galea,28290,Rozas de Madrid (Las),91 636 92 20,Privada,160,orpea.es/centros-residencias/residencia-ancianos-las-rozas-punta-galea,40.540094,-3.900667,España,Calle PlayadeSardinero 19bis-Urb.PuntaGalea
Residencia Real de Rozas,28649,Rozas de Puerto Real,91 863 44 79,Privada,52,realderozas.com,40.308067,-4.48554,España,Carretera deEntrepinos s/n
AMAVIR San Agustín del Guadalix,28750,San Agustín del Guadalix,91 846 63 00,Privada,180,www.amavir.es/residencia-de-mayores-amavir-san-agustin-del-guadalix,40.676006,-3.620976,España,Calle Halcón 1
Residencia de personas mayores San Fernando de Henares,28830,San Fernando de Henares,91 674 62 00,Pública autonómica,120,,40.427991,-3.531295,España,Calle VenturadeArgumosa 4
Orpea San Fernando,28830,San Fernando de Henares,91 485 02 82,Pública local,140,orpea.es/centros-residencias/centro-dia-residencia-ancianos-san-fernando-henares,40.420639,-3.529463,España,Calle Vergara 13
Orpea El Escorial,28200,San Lorenzo de El Escorial,91 899 73 04,Privada,180,orpea.es/centros-residencias/centro-dia-residencia-ancianos-el-escorial,40.603723,-4.131542,España,Calle LuisdeCerveraVera 1-Urb.LasPozas
Residencia de ancianos María Leonor y Legado de los pobres Hernández Muriel,28200,San Lorenzo de El Escorial,91 890 51 04,Privada,74,www.residenciamarialeonor.org,40.596304,-4.149929,España,Calle MaríaLeonor 3
Alba San Lorenzo,28200,San Lorenzo de El Escorial,91 890 08 83,Privada,182,residenalba.net/alba-san-lorenzo,40.5941,-4.14307,España,Calle MarianoSainz 1
Residencia San Marcos,28330,San Martín de la Vega,91 808 72 58,Privada,80,residencia-sanmarcos.com,40.209571,-3.5776,España,Calle RodrigodeTriana 23
Centro residencial Juan Pablo II,28680,San Martín de Valdeiglesias,91 861 14 06,Privada,182,www.lopezrumayor.com,40.358754,-4.387533,España,Carretera Comarcal501 Km.57
Residencia Virgen de la Nueva,28680,San Martín de Valdeiglesias,91 861 19 96,Privada,114,residenciavirgendelanueva.es,40.360707,-4.405366,España,Calle ManuelCarvajal 14
Residencia de personas mayores San Martín de Valdeiglesias,28680,San Martín de Valdeiglesias,91 861 04 00,Pública autonómica,122,,40.363671,-4.402149,España,Calle SanMartín 2
Residencia Años Dorados II,28701,San Sebastián de los Reyes,91 653 53 53,Privada,50,residenciasanosdorados.com,40.568758,-3.60247,España,Paseo deEuropa 52
Hogar Virgen de la Esperanza,28701,San Sebastián de los Reyes,91 651 55 11,Privada sin fin de lucro,72,,40.54684,-3.626786,España,Calle Iglesia 5
AMAVIR La Marina,28703,San Sebastián de los Reyes,91 659 01 88,Privada,159,www.amavir.es/residencia-de-mayores-amavir-la-marina,40.555508,-3.623579,España,Avenida deCataluña 4
Centro Residencial para Mayores Años Dorados,28703,San Sebastián de los Reyes,91 654 44 07,Privada,48,,40.545641,-3.619411,España,Calle LosCerezos 4
Residencia San Sebastián de los Reyes,28703,San Sebastián de los Reyes,91 623 70 12,Pública autonómica,140,www.albertia.es/residencias/residencia-san-sebastian-de-los-reyes/,40.541786,-3.623643,España,Calle MarieCurie s/n
Las Mimosas,28979,Serranillos del Valle,91 813 81 93,Privada,72,www.lasmimosas.com,40.210418,-3.869961,España,Calle Retama 12
Flor de Retama,28979,Serranillos del Valle,91 817 58 01 / 606 53 41 10,Privada,20,www.residenciaflorderetama.com,40.209983,-3.870342,España,Calle Retama 15
Residencia 3ª edad GERONTOS,28729,Venturada,91 843 94 90,Privada,23,www.residenciagerontos.com,40.799662,-3.625449,España,Avenida deMadrid 1
Residencia Ecoplar Griñón-Serranillos,28979,Serranillos del Valle,91 813 81 38,Privada,120,www.ecoplar.com/nuestros-centros/ecoplar-grinon-serranillos/,40.20901,-3.870049,España,Calle Retama 2
Residencia Castilla,28979,Serranillos del Valle,91 817 55 21,Privada,26,www.residenciasrlm.es,40.21026,-3.871749,España,Calle Sierra 16-Urb.LaSierra
Residencia Los Cortijos,28609,Sevilla la Nueva,91 812 96 64,Privada,57,residencialoscortijos.es,40.349122,-4.060583,España,Calle CarrilAntiguo 20
Urbanización de mayores,28609,Sevilla la Nueva,91 812 91 44,Privada,178,www.rosalbagestion.es/centros/urbanizacón_de_mayores,40.3551,-4.00668,España,Avenida deGuadarrama s/n
Residencia Santa Bárbara del Hórreo,28609,Sevilla la Nueva,91 812 92 97,Privada,33,www.residenciasantabarbara.es,40.344545,-4.028279,España,Calle JacintoBenavente 15
Residencia Rosalba,28609,Sevilla la Nueva,91 812 88 52,Privada,210,www.gruporosalba.es,40.344126,-4.029598,España,Calle Tórtola 1
Residencia de 3ª edad Sierra de Madrid,28791,Soto del Real,619 24 23 33 / 91 847 62 97,Privada,29,,40.750167,-3.784135,España,Calle Acero 3
Residencia Soto Fresnos,28791,Soto del Real,91 848 05 10,Privada,111,www.asispa.org/servicios/residencias-asistidas/titularidad-de-asispa/residencia-soto-fresnos-_madrid,40.753599,-3.790157,España,Avenida deEspaña 11
Primar II Centro Geriátrico,28160,Talamanca de Jarama,91 841 77 35,Privada,277,www.primar.es,40.743533,-3.508533,España,Avenida deMadrid s/n
Residencia La Solana,28550,Tielmes,91 874 60 50,Privada,142,www.casona2000.es,40.246099,-3.316626,España,Plaza delaIglesia 4
Residencia Las Celindas,28850,Torrejón de Ardoz,91 656 52 73,Privada,76,lascelindas.gruposantagema.com,40.45959,-3.46226,España,Avenida delaConstitución 128
Pisos tutelados para mayores,28850,Torrejón de Ardoz,91 343 68 02,Pública autonómica,240,,40.445189,-3.47119,España,Avenida delosFresnos 11
AMAVIR Torrejón de Ardoz,28850,Torrejón de Ardoz,91 627 77 00,Privada,180,www.amavir.es/residencia-de-mayores-amavir-torrejon,40.457387,-3.451723,España,Calle Francia 6
Edalia Torrejón de Ardoz,28850,Torrejón de Ardoz,91 655 62 93,Privada,149,www.edalia.es,40.463333,-3.465583,España,Calle Milán 6
Residencia Nuestra Señora del Rosario,28850,Torrejón de Ardoz,91 675 28 59,Privada,56,delrosario.gruposantagema.com,40.458533,-3.476399,España,Calle Soledad 39
Residencia de 3ª edad Magán,28991,Torrejón de la Calzada,91 810 61 15,Privada,140,www.domusvi.es/residencia-de-tercera-edad-torrejon-de-la-calzada,40.1937,-3.80519,España,Calle MiguelDelibes s/n
Residencia para personas mayores Torrelaguna,28180,Torrelaguna,91 843 00 25,Pública autonómica,94,,40.826876,-3.541824,España,Calle DoctorManuelHidalgoHuerta 12
Centro Residencial Sanitas Torrelodones,28250,Torrelodones,91 854 91 20,Privada,143,www.sanitas.es/sanitasresidencial/residencias-mayores/residencia-torrelodones,40.586409,-3.921128,España,Calle Álamo 2
Centro de Mayores MIAL Salud,28250,Torrelodones,91 630 85 81,Privada,174,www.mialsalud.com,40.568445,-3.895831,España,Avenida delosPinares 2
Residencia Los Peñascales,28250,Torrelodones,91 630 35 98,Privada,127,www.residenciapenascales.com,40.569141,-3.898356,España,Avenida delLago 25
Acacias Centro Geriátrico,28250,Torrelodones,91 859 45 30,Privada,20,www.residencia-acacias.com,40.579396,-3.957384,España,Calle JesusaLara 36
Residencia de ancianos Santa María de los Ángeles,28250,Torrelodones,91 859 03 77 / 91 859 38 41 / 91 859 03 77,Privada,33,www.rsantamariadelosangeles.es,40.5835,-3.9578,España,Calle MonteCristina 6
Orpea Torrelodones,28250,Torrelodones,91 856 90 90,Privada,156,orpea.es/centros-residencias/residencia-ancianos-torrelodones-madrid,40.583964,-3.953036,España,Avenida RosarioManzaneque 19
Residencia municipal Hontanar de Jarama,28189,Torremocha de Jarama,91 843 10 55,Pública local,98,,40.839352,-3.500869,España,Calle CanaldeIsabelII 38
Residencia de 3ª edad La Alameda,28813,Torres de la Alameda,91 885 88 68,Privada,146,www.residencia-alameda.es,40.404214,-3.368107,España,Calle MigueldeUnamuno 43
Residencia para mayores Rosario,28813,Torres de la Alameda,91 886 30 61,Pública local,112,www.domusvi.es/residencia-mayores-madrid-rosari,40.397834,-3.359528,España,Calle Palmeras 3
DomusVi Tres Cantos,28760,Tres Cantos,91 806 50 51,Privada,99,www.domusvi.es/residencia-para-mayores-sarquavitae-tres-cantos,40.601901,-3.714957,España,Ronda dePoniente 1
Ballesol Tres Cantos,28760,Tres Cantos,91 804 71 92,Privada,180,ballesol.es/residencias-para-mayores-en-la-comunidad-de-madrid/ballesol-tres-cantos/,40.605339,-3.713818,España,Calle Panaderos s/n(SectorOficios41)
Residencia asistida San Camilo,28760,Tres Cantos,91 803 40 00,Privada sin fin de lucro,172,www.humanizar.es/servicios-asistenciales/residencia-geriatrica-asistida.html,40.615365,-3.712755,España,Calle SectorEscultores 39
Casablanca Valdemoro,28341,Valdemoro,91 801 83 60,Privada,160,www.grupocasablanca.es/residencias/casablanca-valdemoro/,40.1862,-3.68675,España,Calle Aragón 2
DomusVi Valdemoro,28341,Valdemoro,91 808 59 80,Privada,180,www.domusvi.es/residencia-de-mayores-madrid-valdemoro,40.1852,-3.67761,España,Paseo Juncarejo 2-Urb.ElRestón
Residencia municipal Nuestra Señora del Rosario,28342,Valdemoro,91 876 26 58,Pública local,134,www.domusvi.es/residencia-de-ancianos-en-valdemoro-domusvi-nuestra-sra-del-rosario/,40.19543,-3.690404,España,Calle LiliÁlvarez 3
Casablanca Valdesur,28343,Valdemoro,91 895 04 00,Privada,178,www.grupocasablanca.es/residencias/casablanca-valdesur,40.1855,-3.67449,España,Carretera deAndalucía Km.25
Residencia de 3ª edad Los Pinos,28150,Valdetorres de Jarama,91 841 57 02,Privada,21,,40.682137,-3.524492,España,Avenida CalderóndelaBarca 1-Urb.Silillos
Residencia de personas mayores Villa del Prado,28630,Villa del Prado,91 862 22 01,Pública autonómica,120,,40.274219,-4.300819,España,Paseo delaEstación 2
Residencia de 3ª edad Peñas Albas,28810,Villalbilla,91 879 24 13,Privada,84,,40.449708,-3.364523,España,Avenida deEspaña 4-Urb.PeñasAlbas
Residencia Los Hueros,28810,Villalbilla,91 879 38 56 / 682 74 08 52,Privada,16,www.residenciademayoresloshueros.com,40.445755,-3.35112,España,Calle Mayor 53
Residencia de 3ª edad San Miguel,28810,Villalbilla,91 885 02 81,Privada,34,www.residenciasanmiguel.biz,40.433291,-3.305171,España,Calle ReyesMagos 27
Residencia La Paz,28610,Villamanta,91 813 60 05,Privada,54,www.lapazresidencia.com,40.297835,-4.1199,España,Camino deAldeadelFresno 1
Casaverde Vilamanta,28610,Villamanta,91 813 63 35 / 91 813 62 26,Privada,67,www.grupocasaverde.com/centro-para-mayores-casaverde-villamanta,40.297911,-4.120028,España,Carretera deCadalsodelosVidrios Km.9.6
Villa Victoria Residencia,28610,Villamanta,91 813 65 32,Privada,19,www.villavictoriaresidencia.com,40.297545,-4.111879,España,Paseo delaEstación 6
Residencia Virgen del Socorro,28610,Villamanta,91 813 67 38,Privada,98,www.residenciavirgendelsocorro.com,40.298695,-4.105787,España,Avenida Generalísimo 2
Orpea Villanueva de la Cañada,28691,Villanueva de la Cañada,91 811 79 80,Privada,328,orpea.es/centros-residencias/centro-dia-residencia-ancianos-villanueva-canada,40.452299,-4.015236,España,Camino deEncinarejo 3
AMAVIR Villanueva,28691,Villanueva de la Cañada,91 815 57 01,Privada,180,www.amavir.es/residencia-de-ancianos-madrid-amavir-villanueva-de-la-canada,40.447962,-3.992299,España,Avenida Madrid 3
Centro sociosanitario Medinaceli,28229,Villanueva del Pardillo,91 815 44 70,Privada,122,grupomedinaceli.com/centros/centros-propios/villanueva-del-pardillo-centro/,40.481036,-3.968883,España,Avenida delosEstudiantes 3
Residencia de personas mayores Villaviciosa de Odón,28670,Villaviciosa de Odón,91 647 73 18 / 91 616 73 18,Pública autonómica,322,,40.3692,-3.93892,España,Carretera deSanMartíndeValdeiglesias Km.11.200
"Residencia El Castillo, S. L.",28670,Villaviciosa de Odón,91 616 34 61,Privada,73,www.grupoelcastillo.com,40.354291,-3.889337,España,Avenida delValle 7-Urb.ElCastillo
Residencia San Carlos del Bosque,28670,Villaviciosa de Odón,91 616 83 80 / 91 616 85 77,Privada,30,www.residenciasnacarlos.com,40.377247,-3.941107,España,Calle Jalón 20
Residencia Nuestra Señora de la Antigua,28670,Villaviciosa de Odón,91 616 70 18,Privada,49,www.antiguaresidencia.com,40.374307,-3.924425,España,Calle Nervión 6
Residencia Santa Fe,28293,Zarzalejo,91 899 24 47,Privada,81,,40.53933,-4.163902,España,Avenida delaEstación 71
