the_geom,cartodb_id,residencia,codigo_postal,municipio,telefono,titularidad,plazas,url,latitud,longitud,pais,direccion
0101000020E6100000BA15C26A2C610DC09869FB5756324440,280,Residencia Nuestra Señora de Valverde,28053,Madrid,91 477 71 83,Privada,44,,40.39326,-3.672448,España,Calle Convenio 7
0101000020E610000033A7CB6262F30FC003098A1F631E4440,1,Residencia de 3ª edad San Juan de Dios,28607,Álamo (El),91 812 14 14,Privada,303,www.residenciasanjuandedios.es,40.2374,-3.99384,España,Carretera deNavalcarnero-Chinchón Km.5
0101000020E61000003B1BF2CF0CE20FC01494A2957B1D4440,2,Residencia de la 3ª edad Benja,28607,Álamo (El),91 810 41 50,Privada,188,www.residenciasdoctorlopezmalla.com,40.230334,-3.985376,España,Avenida deToledo 23
0101000020E61000009AB1683A3BF90FC0CE001764CB1C4440,3,Residencia Santa Gema Galgani,28607,Álamo (El),91 812 09 40,Privada,14,www.residencia-santa-gema-galgani.com,40.224957,-3.996695,España,Calle Pensamientos 20
0101000020E6100000E7E3DA5031EE0FC03049658A391E4440,4,Residencia La Edad de Oro,28607,Álamo (El),91 812 22 85,Privada,111,www.residenciaedaddeoro.com,40.236131,-3.991305,España,Avenida PríncipedeAsturias 1
0101000020E6100000F50F221972CC0AC0BFF1B567963E4440,5,Residencia Cervantes,28805,Alcalá de Henares,91 883 06 05,Privada,46,www.residenciacervantes.com,40.488965,-3.349827,España,Calle JoséCaballero 1-3
0101000020E61000007383A10E2BDC0AC0A3CA30EE06414440,6,Residencia de personas mayores Francisco de Vitoria,28805,Alcalá de Henares,91 889 30 50,Pública autonómica,513,,40.508024,-3.357504,España,Calle Villamalea 1
0101000020E6100000A4880CAB78030BC08C868C47A93E4440,7,Residencia de personas mayores Cisneros,28806,Alcalá de Henares,91 880 00 15,Pública autonómica,129,,40.489541,-3.376695,España,Avenida deAjalvir 1
0101000020E6100000D6C9198A3BFE0AC0E222F77475414440,8,Alcalá Centro Geriátrico,28806,Alcalá de Henares,91 884 20 27,Privada,140,,40.511397,-3.374137,España,Calle GustavoAdolfoBécquer 27
0101000020E610000076E09C11A5FD0AC0560E2DB29D3F4440,9,DomusVi Alcalá de Henares,28806,Alcalá de Henares,91 830 35 52,Privada,180,www.domusvi.es/residencia-de-mayores-alcala-de-henares,40.497,-3.37385,España,Avenida MigueldeUnamuno 5
0101000020E61000008A58C4B0C3F80AC017BCE82B483F4440,10,Sanitas Residencial Henares,28806,Alcalá de Henares,91 830 35 11,Privada,136,www.sanitas.es/sanitasresidencial/residencias-mayores/residencia-henares,40.49439,-3.371467,España,Calle MiguelDelibes 2
0101000020E6100000C6DCB5847CF00AC0C0266BD443404440,11,Ballesol Alcalá de Henares,28806,Alcalá de Henares,91 802 92 12 / 91 830 10 09,Privada,260,ballesol.es/residencias-para-mayores-en-la-comunidad-de-madrid/ballesol-alcala-de-henares/,40.50207,-3.367425,España,Calle OctavioPaz 21
0101000020E61000007E8CB96B09F90AC0B98D06F016404440,12,AMAVIR Alcalá de Henares,28806,Alcalá de Henares,901 30 20 10,Privada,180,www.amavir.es/residencia-de-mayores-amavir-alcala-de-henares,40.5007,-3.3716,España,Calle OctavioPaz 13
0101000020E61000007A6CCB80B3340DC09AEE75525F464440,13,Orpea Alcobendas,28100,Alcobendas,91 490 06 78,Privada,180,orpea.es/centros-residencias/centro-dia-residencia-ancianos-madrid-alcobendas,40.549784,-3.650733,España,Avenida MigueldeCervantes 3
0101000020E61000002E54FEB5BC320DC0D447E00F3F454440,14,Ballesol Alcobendas,28100,Alcobendas,91 662 50 87,Privada,154,ballesol.es/residencias-para-mayores-en-la-comunidad-de-madrid/ballesol-alcobendas/,40.540987,-3.649774,España,Calle RamónyCajal 1
0101000020E61000000ADCBA9BA73A0DC05F984C158C424440,15,Orpea La Moraleja,28108,Alcobendas,91 650 89 10,Privada,132,orpea.es/centros-residencias/residencia-ancianos-madrid-la-moraleja,40.5199,-3.65364,España,Carretera deBurgos Km.14-Urb.CuestaBlanca
0101000020E6100000342DB1321A390DC0357F4C6BD3424440,16,Residencia Gastón Baquero,28108,Alcobendas,91 661 71 91 / 91 661 28 76,Pública autonómica,201,,40.522077,-3.652882,España,Calle FranciscoChicoMendes 8
0101000020E6100000DB4E5B2382110DC01B82E3326E444440,17,Sanitas Residencial La Moraleja,28108,Alcobendas,91 490 37 70,Privada,126,www.sanitas.es/sanitasresidencial/residencias-mayores/residencia-la-moraleja,40.534613,-3.633549,España,Avenida LaVega 20
0101000020E61000003A75E5B33C0F0DC07B116DC7D4434440,18,Caser Residencial La Moraleja,28109,Alcobendas,91 659 73 02,Privada,295,www.caseresidencial.es/la-moraleja,40.529931,-3.63244,España,Calle Salvia 133
0101000020E6100000A510C8258EBC0EC0BA826DC4932B4440,19,Residencia de personas mayores Alcorcón,28922,Alcorcón,91 644 13 00 / 91 682 42 47,Pública autonómica,218,,40.340447,-3.842068,España,Avenida EstebanMárquez 2
0101000020E6100000CD5A0A48FB9F0EC0268C6665FB2A4440,20,AMAVIR Alcorcón,28922,Alcorcón,91 512 72 00,Privada,180,www.amavir.es/residencia-de-ancianos-madrid-amavir-alcorcon,40.335797,-3.828116,España,Calle GabrielaMistral 4
0101000020E610000026C79DD2C1FA0EC00C790437522E4440,21,Residencia de 3ª edad Campodón,28922,Alcorcón,91 616 66 96 / 91 616 10 57,Privada,146,,40.361884,-3.87244,España,Calle Prado 3
0101000020E61000001DE5603601860EC0446FF1F09E2B4440,22,Centro Residencial Sanitas Alcorcón,28923,Alcorcón,91 643 71 86,Privada,144,www.sanitas.es/sanitasresidencial/residencias-mayores/residencia-alcorcon,40.340788,-3.815432,España,Avenida dePolvoranca s/n
0101000020E610000005F9D9C8750311C0FF3C0D1824274440,23,Residencia de ancianos San Juan Bautista,28620,Aldea del Fresno,91 862 10 45 / 91 864 90 01,Privada,84,,40.305789,-4.253379,España,Carretera Comarcal507 Km.22-FincaElRincón
0101000020E610000035ED629AE9FE0BC074232C2AE24C4440,24,Galdama Algete,28110,Algete,91 628 93 57,Privada,90,www.residenciasdemadrid.es/RESIDENCIA-ALGETE/,40.600652,-3.499469,España,Camino deValderrey s/n(esq.C/LuisdeGóngora)
0101000020E610000020B6F468AAA70CC0A8565F5D15504440,25,Orpea Santo Domingo,28120,Algete,91 622 02 32,Privada,150,orpea.es/centros-residencias/residencia-ancianos-madrid-santo-domingo,40.625652,-3.581868,España,Callejón delasTerrazas s/n
0101000020E61000008D4468041B1710C0D2E1218C9F524440,26,Los Llanos Vital,28430,Alpedrete,91 851 08 88,Privada,93,www.losllanosvital.es,40.645494,-4.022564,España,Calle MigueldeCervantes 2
0101000020E610000095D39E9273E20CC0C4B2994352034440,27,DomusVi Real Deleite,28300,Aranjuez,91 891 02 36,Privada,268,www.domusvi.es/residencia-para-mayores-sarquavitae-real-deleite,40.025948,-3.610572,España,Paseo delDeleite 3
0101000020E6100000664D2CF015BD0CC019C8B3CBB7044440,28,Residencia Santiago Rusiñol,28300,Aranjuez,91 891 14 40,Pública autonómica,464,,40.036859,-3.592327,España,Plaza DoctorGonzálezBueno 16
0101000020E61000003849F3C7B4960BC031CF4A5AF1274440,29,Centro Residencial Los Villares,28500,Arganda del Rey,91 870 19 86,Privada,25,www.residencialosvillares.es,40.312053,-3.448587,España,Avenida delosVillares 1
0101000020E6100000E1B4E0455F810BC09487855AD3244440,30,Residencia de personas mayores Arganda del Rey,28500,Arganda del Rey,91 871 33 00,Pública autonómica,449,,40.2877,-3.43817,España,Avenida delInstituto s/n
0101000020E61000002B85402E71E40FC08A0629780A5B4440,31,Residencia Vigor,28490,Becerril de la Sierra,91 853 62 49,Privada,51,www.residenciavigor.com,40.711257,-3.986544,España,Paseo delaErmita 51
0101000020E6100000501E166A4DB30AC05F79909E22114440,32,Residencia El Mural,28390,Belmonte de Tajo,91 874 74 11,Privada,49,,40.133869,-3.33755,España,Barrio Alto 35
0101000020E61000001E1494A2957B0CC089450C3B8C714440,33,Residencia El Berrueco,28192,Berrueco (El),91 868 61 84,Pública autonómica,110,,40.887092,-3.560344,España,Calle Escuelas 1
0101000020E6100000988922A46E070FC0DAA9B9DC60344440,34,Residencia Virgen del Pilar,28660,Boadilla del Monte,91 633 03 75,Privada,233,www.residenciavirgendelpilar.es,40.409206,-3.878629,España,Calle Mártires 14
0101000020E61000005417F032C3260FC0ED66463F1A344440,35,SERGESA Boadilla del Monte,28660,Boadilla del Monte,91 495 28 60,Privada,180,www.sergesa.com/residencia-geriatrica-en-madrid-boadilla-del-monte,40.407051,-3.893927,España,Calle SeveroOchoa 8
0101000020E610000069C878944AF80FC0B8E52329E9334440,36,Residencia de 3ª edad El Pilar,28690,Brunete,91 815 82 25,Privada,15,www.residenciaelpilarbrunete.com,40.405553,-3.996236,España,Paseo deRonda 8
0101000020E61000001C7E37DDB20310C01C959BA8A5334440,37,GERIASA Brunete,28690,Brunete,91 815 83 00,Privada,248,www.geriasa.es,40.403493,-4.003612,España,Calle Eras 39
0101000020E61000004C874ECFBB110DC004543882547E4440,38,Pisos tutelados para personas mayores,28730,Buitrago del Lozoya,91 868 20 71,Pública autonómica,50,,40.986954,-3.633659,España,Calle Cotos 2-4-6
0101000020E6100000E7E104A6D31A0DC0D4D4B2B5BE7E4440,39,Residencia municipal Miralrío,28730,Buitrago del Lozoya,91 868 02 90,Privada,44,residencia.ayto-buitragodellozoya.es,40.990195,-3.638099,España,Avenida deMadrid 39
0101000020E6100000DA9255116E120DC04293C492727F4440,40,Residencia Marqués de Santillana,28730,Buitrago del Lozoya,91 868 07 86,Privada,42,,40.995684,-3.633999,España,Calle Mártires 2
0101000020E6100000D8463CD9CDAC0DC001FA7DFFE66D4440,41,Asociación Amigos de la 3ª Edad El Concejo,28720,Bustarviejo,91 848 20 55,Privada,51,,40.858612,-3.709377,España,Calle MarianoGarcía 1
0101000020E610000044C2F7FE06BD11C0EFA99CF694264440,42,Residencia Maravillas,28640,Cadalso de los Vidrios,91 864 00 81,Privada,112,www.residenciamaravillas.com,40.301421,-4.434597,España,Paseo delaCastellana 6
0101000020E61000008DB62A89EC030BC010E84CDA542B4440,43,Residencia de 3ª edad de Campo Real,28510,Campo Real,91 874 10 09,Pública local,66,,40.338527,-3.376916,España,Avenida deArganda 1
0101000020E61000009E616A4B1DE409C0FAB48AFED0204440,44,Residencia Palacio de Carabaña,28560,Carabaña,91 872 30 97,Privada,49,,40.256378,-3.236384,España,Calle Madrid 3
0101000020E6100000EB54F99E91D811C0C310397D3D214440,45,AMAVIR Cenicientos,28650,Cenicientos,91 860 09 00,Privada,82,www.amavir.es/residencia-de-mayores-amavir-cenicientos,40.259689,-4.461493,España,Calle SanSebastián 13
0101000020E61000005A4B0169FF4310C030F31DFCC45D4440,46,Residencia de 3ª edad Mirasierra,28470,Cercedilla,91 852 03 14,Privada,46,www.residenciamirasierra.com,40.732574,-4.066404,España,Carretera AntiguadeLosMolinos 11
0101000020E6100000287CB60E0E3610C00F0D8B51D7604440,47,Residencia Montehermoso Camorritos,28470,Cercedilla,91 852 25 50,Privada,159,www.monte-hermoso.com,40.756571,-4.052788,España,Carretera deCamorritos s/n
0101000020E6100000416150A6D14410C07D7A6CCB805D4440,48,"Residencia para Mayores del Carmen, S. L.",28470,Cercedilla,91 852 33 42,Privada,20,www.residenciadelcarmencercedilla.com,40.730493,-4.067206,España,Calle SalvadorCanals 5
0101000020E61000007F6DFDF49FD510C06FA0C03BF9304440,49,Residencia La Pinarilla,28694,Chapinería,91 865 06 88,Privada,76,www.residencialapinarilla.com,40.382606,-4.208618,España,Calle Ventorro 4
0101000020E610000079060DFD135C0BC05396218E75114440,50,Residencia El Llano,28370,Chinchón,91 894 13 46,Privada,54,,40.1364,-3.41996,España,Calle CruzdelPortugués 5
0101000020E610000035ECF7C43A550BC0683D7C9928124440,51,Residencia San José,28370,Chinchón,91 894 00 39,Privada,80,,40.141864,-3.416616,España,Calle TenienteOrtizdeZárate 56
0101000020E610000043C6A354C2130DC0E17F2BD9B1134440,52,Residencia Las Vegas,28350,Ciempozuelos,91 809 14 75,Pública autonómica,78,www.albertia.es/residencias/residencia-las-vegas,40.153865,-3.634648,España,Calle Cabañeros 110
0101000020E61000002C0B26FE28EA0CC016DC0F7860144440,53,Residencia de Ancianos Palacios,28350,Ciempozuelos,91 893 07 12 / 91 893 07 62,Privada,85,www.residenciapalacios.es/ciempozuelos/,40.159194,-3.614336,España,Paseo delaEstación 16
0101000020E6100000A7751BD47E0B0DC0E1B20A9B01144440,54,Hotel Residencia Virgen del Consuelo,28350,Ciempozuelos,91 893 31 40 / 91 893 31 29,Privada,73,www.residenciavirgendelconsuelo.com,40.156299,-3.630613,España,Avenida delosToreros 4
0101000020E610000015747B4963F40CC08A03E8F7FD134440,55,Residencia asistida de personas mayores - Complejo Asistencial Benito Menni,28350,Ciempozuelos,91 893 01 50,Privada sin fin de lucro,208,www.benitomenniciempozuelos.org,40.156188,-3.61933,España,Calle Jardines 1
0101000020E61000002670EB6E9EEA0CC03D0D18247D144440,56,Residencia para Mayores Casaquinta,28350,Ciempozuelos,91 893 30 00,Privada sin fin de lucro,320,www.residenciacasaquinta.es/,40.160069,-3.61456,España,Avenida SanJuandeDios 3
0101000020E61000002670EB6E9EEA0CC03D0D18247D144440,57,Centro San Juan de Dios,28350,Ciempozuelos,91 893 00 01,Privada sin fin de lucro,234,www.csjd.es,40.160069,-3.61456,España,Avenida SanJuandeDios 1
0101000020E610000063B9A5D590F80CC0226C787AA5144440,58,Residencia de 3ª edad Pablo Neruda,28350,Ciempozuelos,91 801 51 81,Privada,103,www.clecemayores.com/es/residencia/57/pablo-neruda/,40.1613,-3.62137,España,Calle SantaClara 1
0101000020E6100000001C7BF65C060CC01477BCC96F494440,59,Cobeña Inarejos,28863,Cobeña,91 620 86 97,Privada,99,www.residenciacobeña.es,40.573724,-3.503107,España,Calle VeredadelosSastres 1
0101000020E6100000D1764CDD95FD0BC0CB811E6ADB484440,60,Alba 2 Residencia Geriátrica,28863,Cobeña,91 620 87 54,Privada,128,www.residenalba.com,40.569196,-3.498821,España,Calle Viñuelas 2
0101000020E61000000E83F92B642E10C0E48409A359554440,61,Residencia Nuestra Señora del Pilar,28450,Collado Mediano,91 840 68 33,Privada sin fin de lucro,31,www.mayoreselpilar.es,40.666798,-4.045304,España,Calle SotograndedeAbajo 11
0101000020E61000008BC3995FCD0110C035EF384547524440,62,Residencia para mayores AMAVIR Nuestra Casa,28400,Collado Villalba,91 849 38 54,Pública autonómica,140,www.amavir.es/residencia-de-mayores-amavir-nuestra-casa,40.6428,-4.00176,España,Calle Águedas 1
0101000020E61000005E7EA7C98CF70FC0F964C57075524440,63,Orpea Collado Villalba,28400,Collado Villalba,91 849 78 60,Privada,181,orpea.es/centros-residencias/residencia-ancianos-madrid-collado-villalba,40.644209,-3.995874,España,Avenida deMoralzarzal s/n
0101000020E61000004CC3F01131E50FC00A68226C78524440,64,Sol Salud,28400,Collado Villalba,91 850 22 14,Privada,65,www.residenciasolsalud.net,40.6443,-3.98691,España,Urbanización LaCerca blq.30
0101000020E610000058552FBFD3240BC0EFC682C2A00E4440,65,Residencia de ancianos San Juan Bautista,28380,Colmenar de Oreja,91 894 33 07 / 91 894 44 98,Privada sin fin de lucro,99,,40.114281,-3.392982,España,Calle Madrid 23
0101000020E61000009BCB0D863ACC10C0F2EEC8586D364440,66,Sanitas Residencial Almenara,28213,Colmenar del Arroyo,91 865 10 00,Privada,106,www.sanitas.es/sanitasresidencial/residencias-mayores/residencia-almenara,40.425212,-4.199442,España,Calle Colmenar 2
0101000020E610000046D3D9C9E0280EC017618A7269564440,67,Residencia de personas mayores Colmenar Viejo,28770,Colmenar Viejo,91 847 40 00,Pública autonómica,393,,40.675093,-3.76996,España,Avenida delosRemedios 28
0101000020E610000068CC24EA053F0EC089EFC4AC17534440,68,Residencia Gladiolos,28770,Colmenar Viejo,91 845 20 17,Privada,74,www.residenciagladiolos.com,40.64916,-3.780773,España,Calle Gladiolos 5-ColoniadeSanCrispín
0101000020E610000096253ACB2C420EC0116DC7D45D534440,69,Residencia de 3ª edad ADEMAR,28770,Colmenar Viejo,91 848 62 02,Privada,23,,40.651301,-3.782312,España,Calle Hortensias 2
0101000020E6100000B5FCC0559E200EC0E3DF675C38544440,70,Residencia Santa Teresa,28770,Colmenar Viejo,91 845 33 98,Privada,26,,40.65797,-3.765927,España,Calle IsabellaCatólica 1
0101000020E61000004084B872F62E0EC01823128596534440,71,Centro Residencial Sanitas Colmenar Viejo,28770,Colmenar Viejo,91 848 42 73,Privada,202,www.sanitas.es/sanitasresidencial/residencias-mayores/residencia-colmenarviejo,40.653031,-3.772931,España,Paseo Magdalena 2
0101000020E6100000A1D80A9A96380EC03F390A1005554440,72,AMAVIR Colmenar,28770,Colmenar Viejo,91 845 98 08,Privada,180,www.amavir.es/residencia-de-ancianos-madrid-amavir-colmenar,40.664217,-3.777631,España,Calle Mosquilona 65
0101000020E6100000EC2DE57CB1170EC0EE76BD3445544440,73,Residencia Nuestra Señora de la Soledad y del Carmen,28770,Colmenar Viejo,91 845 15 23,Privada,82,www.fundacionbasilica.org/index.php/residencia/presentacion,40.658362,-3.761569,España,Calle Soledad 52
0101000020E6100000882AFC19DE6C0CC0E7E44526E0354440,74,AMAVIR Coslada,28822,Coslada,91 673 30 65,Privada,180,www.amavir.es/residencia-de-ancianos-madrid-amavir-coslada,40.420903,-3.553158,España,Avenida España 130
0101000020E6100000CB845FEAE76D0CC0508BC1C3B4354440,75,DomusVi Parque Coslada,28822,Coslada,91 673 01 00,Privada,142,www.domusvi.es/residencia-mayores-madrid-parque-coslada,40.419579,-3.553665,España,Calle ManuelAzaña 5
0101000020E610000052616C21C8C10EC08331225168194440,76,Residencia de 3ª edad Ruiz y Latorre,28978,Cubas de la Sagra,91 814 28 95,Privada,28,www.centroresidencialruizylatorre.com,40.198496,-3.84462,España,Calle delasCasas 22
0101000020E610000033C34659BFB90EC0EECD6F9868184440,77,Residencia de personas mayores Santa María del Silencio - Cáritas,28978,Cubas de la Sagra,91 814 23 00,Privada sin fin de lucro,130,,40.190692,-3.840697,España,Calle SagradoCorazón 25
0101000020E610000005A22765528310C0ECFB7090104B4440,78,Residencia para mayores El Escorial,28280,Escorial (El),91 890 13 61,Privada,60,elescorial.gruposantagema.com,40.586443,-4.128244,España,Calle AriasMontano 12
0101000020E6100000CE716E13EE3510C086C77E164B4D4440,79,Centro Residencial Sanitas El Escorial,28280,Escorial (El),91 853 35 33,Privada,169,www.sanitas.es/sanitasresidencial/residencias-mayores/residencia-elescorial,40.603854,-4.052666,España,Calle Nueve 9
0101000020E6100000A88FC01F7EDE08C078D2C26515184440,80,Orpea Estremera,28595,Estremera,91 875 57 47 / 91 876 14 64,Privada,82,orpea.es/centros-residencias/centro-dia-residencia-ancianos-madrid-estremera,40.188153,-3.108639,España,Avenida PapaJuanPabloII s/n
0101000020E610000017BA1281EA7F0EC060CAC0012D254440,81,Residencia de 3ª edad Santa Justa,28942,Fuenlabrada,91 600 20 30,Privada,54,www.residenciasantajusta.com,40.290436,-3.812459,España,Camino deFregacedos 2
0101000020E610000016A243E048800EC068925852EE244440,82,Residencia municipal de mayores de Fuenlabrada,28942,Fuenlabrada,91 607 12 43,Pública local,63,,40.288523,-3.812639,España,Calle VillaElena 21
0101000020E6100000F4E2C4573B4A0EC04C6E14596B244440,83,"Residencia de 3ª edad San Esteban, S. L.",28944,Fuenlabrada,91 600 01 55,Privada,15,,40.284526,-3.786246,España,Calle Argentina 24-bajos
0101000020E610000010CEA78E552A0EC0656EBE11DD234440,84,Residencia Galdama Fuenlabrada,28944,Fuenlabrada,91 615 42 61,Privada,175,www.residenciasdemadrid.es/fuenlabrada/,40.280184,-3.770671,España,Calle VillaElena 21
0101000020E6100000AE44A0FA07110CC02025766D6F514440,85,Caim Los Olivos,28140,Fuente el Saz de Jarama,91 620 12 60,Privada,19,www.primar.es,40.636213,-3.508316,España,Avenida deAragón 15
0101000020E6100000F0DB10E3350F0CC0978FA4A487514440,86,Residencia de 3ª edad Primar,28140,Fuente el Saz de Jarama,91 620 19 00 / 91 620 18 92,Privada,40,,40.636952,-3.507427,España,Avenida deAragón 21
0101000020E6100000AC74779D0D190CC0F302ECA353514440,87,Caim Los Olivos,28140,Fuente el Saz de Jarama,91 620 07 69,Privada,67,www.caimlosolivos.es,40.635365,-3.512233,España,Calle FélixRodríguezdelaFuente 2
0101000020E61000002B306475AB4709C077DB85E63A0F4440,88,Fundación Manzanares,28597,Fuentidueña de Tajo,91 872 84 86,Privada,53,,40.118985,-3.159995,España,Calle Mayor 13-15
0101000020E61000005CC7B8E2E20810C0A27A6B60AB4E4440,89,Residencia Ítaca,28260,Galapagar,91 851 26 99 / 91 851 88 58,Privada,21,,40.614605,-4.008678,España,Calle ÁlvaroCunqueiro 18
0101000020E61000003D2828452BF70FC05C76887FD8484440,90,Residencia Mi Casita,28260,Galapagar,91 858 25 18,Privada,21,www.residenciamicasita.com,40.569107,-3.995688,España,Calle Navamora 6
0101000020E6100000138255F5F20B10C0F46F97FDBA494440,91,Residencia Santa Gema,28260,Galapagar,91 858 38 56,Privada,55,santagema.gruposantagema.com,40.576019,-4.011669,España,Calle Peraleda 9
0101000020E61000004F3BFC35590310C053E751F17F494440,92,Residencia Fátima,28260,Galapagar,91 858 42 40 / 91 858 44 36,Privada,96,www.residencia-fatima.com,40.574217,-4.00327,España,Calle Procesiones 44-48
0101000020E610000057B439CE6D0210C0AEF545425B484440,93,Residencia de 3ª edad Antares,28260,Galapagar,91 859 70 51,Privada,25,www.residenciaantares.com,40.565285,-4.002372,España,Calle PuentedelRetamar 4
0101000020E61000005723BBD2320210C055BFD2F9F0484440,94,Residencia El Amanecer,28260,Galapagar,91 858 12 01,Privada,26,www.residenciaelamanecer.es,40.569854,-4.002147,España,Calle Rosales 4-ColoniaLaCanaleja
0101000020E6100000FE4465C39AEA0FC0C364AA60544C4440,95,Valdesalud,28420,Galapagar,91 858 03 02,Privada,27,residenciavaldesalud.com,40.596325,-3.989553,España,Calle Cíes 22-LaNavata
0101000020E61000005072874D64E60FC0A69BC420B04C4440,96,Residencia de mayores Navasalud,28420,Galapagar,91 858 41 81,Privada,28,www.residencia-navasalud.es,40.599125,-3.987496,España,Calle ColadaCharcodelaHoya 10-D-LaNavata
0101000020E610000000FDBE7FF3E20FC006F1811DFF4B4440,97,Hotel de 3ª edad El Madroño,28420,Galapagar,91 858 71 04,Privada,50,www.hoteldemayores.com,40.593723,-3.985816,España,Calle LaPerdiz 12-LaNavata
0101000020E6100000B610E4A084B90DC053AEF02E17294440,98,Residencia de mayores Los Ángeles,28903,Getafe,91 696 11 91,Privada,180,www.residenciademayores.com,40.32102,-3.715585,España,Avenida delosÉbanos 65
0101000020E61000006C223317B8BC0DC09B1BD31396284440,99,Residencia de personas mayores Alzheimer Getafe,28903,Getafe,91 665 25 10,Pública autonómica,70,,40.31708,-3.717148,España,Avenida FranciscoFernándezOrdóñez 2
0101000020E6100000965B5A0D89FB0DC03737A6272C254440,100,Sanitas Residencial Getafe,28905,Getafe,91 696 55 67,Privada,196,www.sanitas.es/sanitasresidencial/residencias-mayores/residencia-getafe,40.29041,-3.74782,España,Avenida ArcasdelAgua 15
0101000020E61000004D9F1D705D110EC05BD3BCE314254440,101,AMAVIR Getafe,28905,Getafe,91 481 94 00,Privada,180,www.amavir.es/residencia-de-mayores-amavir-getafe,40.2897,-3.758479,España,Calle IslasCanarias 162
0101000020E61000006E6C76A4FAEE0DC0580053060E264440,102,Residencia de personas mayores de Getafe,28905,Getafe,91 682 42 47,Pública autonómica,64,,40.297303,-3.741689,España,Avenida JuanCarlosI 4-SectorIII
0101000020E610000056D97745F03F0DC0287E8CB96B294440,103,Centro Geriátrico Madre Maravillas,28909,Getafe,91 684 70 85,Privada,54,www.mmaravillas.org,40.3236,-3.65622,España,Plaza delaIglesia 2
0101000020E61000007FF8F9EFC14B0DC0501DAB949E294440,104,Residencia Los Nogales Cerro de los Ángeles,28909,Getafe,91 684 93 10,Privada,99,,40.325152,-3.661991,España,Calle Groenlandia 6
0101000020E61000008E9257E718D00EC0EA95B20C711C4440,105,Casablanca Griñón,28971,Griñón,91 814 15 11,Privada,60,www.grupocasablanca.es/casablancaGR.htm,40.2222,-3.85161,España,Avenida Albéniz 8
0101000020E6100000F910548D5ECD0EC07E54C37E4F1C4440,106,Residencia Vitalia Griñón,28971,Griñón,91 860 94 99,Privada,150,www.vitaliahome.es/project/grinon,40.221176,-3.850278,España,Avenida Albéniz 2
0101000020E61000006CE7FBA9F1D20EC09432A9A10D1C4440,107,Residencia de personas mayores municipal de Griñón,28971,Griñón,91 814 09 52 / 91 814 06 71,Pública local,78,,40.219166,-3.853,España,Barrio Ermita 1
0101000020E6100000EFC682C2A08C0DC037A79201A0644440,108,Residencia municipal Guadalix de la Sierra,28794,Guadalix de la Sierra,91 847 10 09,Pública local,58,www.asispa.org/servicios/residencias-asistidas/titularidad-publica-gestionadas-por-asispa/residencia-guadalix-d,40.786133,-3.693666,España,Calle Palenque 8
0101000020E610000000A94D9CDC2F10C063F030ED9B534440,109,Residencia Fuenteverde,28440,Guadarrama,91 849 30 22,Privada,15,www.grupodelapuebla.es/residencia-fuenteverde,40.653196,-4.04674,España,Calle Acuario 3
0101000020E6100000832F4CA60A6610C065C22FF5F3564440,110,Residencia 3ª edad Mañón,28440,Guadarrama,91 854 76 30,Privada,15,www.residenciamanon.com,40.67932,-4.09965,España,Calle AntonioMachado 22
0101000020E610000056B77A4E7A5F10C0F75AD07B63564440,111,Residencia La Jarosa,28440,Guadarrama,91 854 08 49,Privada,50,www.residencialajarosa.com,40.674911,-4.09324,España,Paseo delaAlameda 7
0101000020E6100000D89FC4E74E6010C05C5A0D897B564440,112,Sanitas Residencial Guadarrama,28440,Guadarrama,91 854 38 93,Privada,170,www.sanitas.es/sanitasresidencial/residencias-mayores/residencia-guadarrama,40.675645,-4.094051,España,Paseo delaAlameda 8
0101000020E61000009ED0EB4FE25310C09E7AA4C16D554440,113,Residencia mixta de 3ª edad Guadarrama,28440,Guadarrama,91 854 07 83,Privada,30,www.residenciaguadarrama.es,40.667412,-4.081918,España,Paseo deMolinodelRey 31
0101000020E61000006479573D605E10C053060E68E9544440,114,Residencia Guadarrama El Escorial,28440,Guadarrama,91 854 35 44,Privada,90,www.guadarramaescorial.net,40.663373,-4.092164,España,Calle FuentedelEspino 51-Urb.LosBuiles
0101000020E610000075E789E76C3110C0FB5A971AA1534440,115,Centro de mayores La Tejera,28440,Guadarrama,91 849 37 57,Privada,49,www.residencialatejera.com,40.653354,-4.048267,España,Calle Géminis 15-Urb.LasCabezuelas
0101000020E61000003E25E7C41E5A10C0E8DD585018564440,116,Residencia municipal de San Miguel Arcángel,28440,Guadarrama,91 854 77 22,Privada,46,,40.672617,-4.088008,España,Calle Panera 1
0101000020E61000008B4F01309E3110C07632384A5E534440,117,Residencia Virgen del Valle,28440,Guadarrama,91 851 88 10,Privada,26,,40.651315,-4.048455,España,Calle ValledelAlberche 6
0101000020E610000076C3B645992D10C0AF44A0FA07534440,118,Residencia de 3ª edad Los Ángeles,28440,Guadarrama,91 850 88 42,Privada,67,residencialosangelesguadarrama.com,40.648681,-4.04453,España,Calle ValledelAlberche 22
0101000020E6100000E318C91EA1860EC011E15F048D1F4440,119,AMAVIR Humanes,28970,Humanes de Madrid,91 604 05 32,Privada,180,www.amavir.es/residencia-de-ancianos-madrid-amavir-humanes,40.246491,-3.815737,España,Avenida delosDeportes 14
0101000020E610000054C554FA09470EC098BED7101C294440,120,DomusVi Leganés,28914,Leganés,91 648 42 53,Privada,180,www.domusvi.es/residencia-mayores-madrid-leganes,40.321169,-3.784687,España,Calle CésarGarcíaContonente 6
0101000020E6100000EBABAB02B5180EC0809C306134294440,121,Residencia El Encinar,28914,Leganés,91 694 41 61,Pública autonómica,132,www.amavir.es/residencia-de-mayores-amavir-el-encinar,40.321911,-3.762064,España,Calle ConstitucióndeCádiz 5
0101000020E610000011FFB0A547130EC0DC7EF964C5284440,122,Nuestra Señora de Butarque,28914,Leganés,91 693 85 13,Privada,180,www.residenciabutarque.es,40.318524,-3.759414,España,Calle Delco 10-CiudaddelAutomóvil
0101000020E61000001C7A8B87F73C0EC014B1886187294440,123,Residencia geriátrica Valdepelayos 67,28914,Leganés,91 693 00 58,Privada,18,,40.324444,-3.779769,España,Calle DiegoMartínezBarrio 65
0101000020E61000004C50C3B7B02E0EC024253D0CAD284440,124,Residencia para mayores Parque los Frailes,28914,Leganés,91 693 40 00,Pública autonómica,220,www.araliaservicios.es/centro/madrid-leganés-0,40.317781,-3.772798,España,Calle losFrailes 12
0101000020E610000042E90B21E73D0EC01B0FB6D8ED294440,125,Residencia Los Balcones,28914,Leganés,91 498 75 07,Privada,128,www.losbalcones.es,40.327571,-3.780226,España,Calle Trigo 14
0101000020E61000004677103B53480EC07782FDD7B92D4440,126,Pisos tutelados para personas mayores de Leganés,28917,Leganés,91 481 62 40,Pública autonómica,135,,40.357234,-3.785315,España,Calle Braganza 3-5
0101000020E6100000075E2D7766020EC017F4DE18022C4440,127,Vitalia Leganés,28919,Leganés,91 686 07 00,Privada,266,www.vitaliahome.es/project/leganes,40.343814,-3.751172,España,Calle MaríaMoliner 7
0101000020E61000008410902FA1020DC0DDB1D82615774440,128,Residencia para la 3ª edad Virgen de Regla 3E,28752,Lozoyuela-Navas-Sieteiglesias,91 869 88 99 / 91 869 40 30 / 638 84 02 40,Privada,46,,40.930333,-3.626284,España,Calle PradosQuemados 10
0101000020E61000004D2F3196E9770DC01A4D2EC6C0364440,129,Santa María del Monte Carmelo,28001,Madrid,91 435 16 60,Privada sin fin de lucro,99,www.residenciamontecarmelo.es,40.427758,-3.683551,España,Calle Ayala 33-35
0101000020E61000002E1B9DF3537C0DC0E0A128D027364440,130,Residencia Hermanitas de los Ancianos Desamparados,28001,Madrid,91 435 10 97 / 91 431 62 01,Privada sin fin de lucro,78,,40.42309,-3.685707,España,Calle Lagasca 17
0101000020E6100000357D76C075650DC0876C205D6C384440,131,Residencia geriátrica María Inmaculada,28002,Madrid,91 519 41 70 / 627 92 35 07,Privada,24,residenciageriatricamariainmaculada.com,40.440807,-3.674541,España,Calle Cartagena 120
0101000020E61000004339D1AE426A0DC041446ADAC5384440,132,Ballesol Príncipe de Vergara,28002,Madrid,91 411 99 30,Privada,302,ballesol.es/residencias-para-mayores-en-la-comunidad-de-madrid/ballesol-principe-de-vergara/,40.443538,-3.676885,España,Calle Cartagena 133
0101000020E61000007EAEB6627F590DC0CDACA580B4394440,133,Residencia de 3ª edad SagradaFamilia,28002,Madrid,91 413 41 15,Privada,27,,40.450821,-3.6687,España,Calle LuisLarrainza 46bis
0101000020E6100000F81A82E3326E0DC0C630276893394440,134,Sanitas Residencial El Viso,28002,Madrid,91 561 23 32,Privada,102,www.sanitas.es/sanitasresidencial/residencias-mayores/residencia-el-viso,40.449811,-3.678808,España,Calle RodríguezMarín 57
0101000020E6100000812557B1F84D0DC06DFE5F75E4384440,135,Caser Residencial Santa Hortensia,28002,Madrid,91 510 68 10,Privada,184,www.caseresidencial.es/santa-hortensia,40.444472,-3.663072,España,Calle SantaHortensia 46
0101000020E61000001ADF1797AAB40DC046E9D2BF24394440,136,Orpea Madrid Loreto,28003,Madrid,91 535 77 16,Privada,144,orpea.es/centros-residencias/residencia-ancianos-madrid-loreto,40.446434,-3.713216,España,Avenida ReinaVictoria 60-62
0101000020E610000030630AD6389B0DC00B62A06B5F384440,137,Residencia de Mayores Santa Engracia,28003,Madrid,91 990 77 20,Pública local,36,,40.440412,-3.700792,España,Calle SantaEngracia 118
0101000020E6100000AE80423D7DA40DC0C093162EAB364440,138,Residencia de mayores Dos de Mayo,28004,Madrid,91 360 48 31,Privada,60,residenciadeancianoscg.com/nuestras-residencias/dos-de-mayo,40.427099,-3.705317,España,Calle Daoiz 8
0101000020E6100000FCDEA63FFB910DC0003ACC9717364440,139,Residencia Gravina,28004,Madrid,91 523 03 12,Privada,55,www.residenciagravina.com,40.422595,-3.69628,España,Calle Gravina 20
0101000020E610000004E3E0D231A70DC0647616BD53334440,140,Residencia de mayores Madrid - Peñuelas,28005,Madrid,91 506 05 96,Pública autonómica,220,www.araliaservicios.es/centro/madrid-peñuelas,40.400993,-3.706638,España,Calle Arganda 9-11
0101000020E610000003D19332A9C10DC08FFAEB1516344440,141,Residencia Los Nogales Pontones,28005,Madrid,91 364 43 48,Privada,260,www.los-nogales.es/pontones-residencia-mayores-de-edad-madrid/,40.406924,-3.719561,España,Calle CobodeSegovia 4
0101000020E61000003B54539275B80DC07575C7629B344440,142,Apartamentos municipales para mayores San Francisco El Grande,28005,Madrid,91 364 40 05,Pública local,68,,40.410992,-3.715068,España,Calle Jerte 1
0101000020E610000019575C1C95BB0DC07DE71725E8334440,143,Residencia Los Nogales - Imperial,28005,Madrid,91 364 82 55,Privada,252,www.los-nogales.es/nogales-imperial-residencia-mayores-madrid,40.405522,-3.716593,España,Calle SantaMaríaRealdeNieva s/n
0101000020E610000028486C770FB00DC0F146E6913F344440,144,Los Nogales La Paloma,28005,Madrid,91 365 03 03,Privada,99,www.los-nogales.es/la-paloma-residencia-mayores-madrid,40.40819,-3.710967,España,Calle Toledo 96
0101000020E6100000952BBCCB457C0DC014ECBFCE4D374440,145,Hogar Residencia San Luis de los Franceses,28006,Madrid,91 431 28 00,Privada,70,www.residenciasanluis.com,40.432062,-3.68568,España,Calle ClaudioCoello 94
0101000020E6100000F4C308E1D1660DC0E316F37343374440,146,Fundación de Doña Fausta Elorz,28006,Madrid,91 309 96 50,Privada sin fin de lucro,120,www.fundacionelorz.org,40.431746,-3.675205,España,Calle CondedePeñalver 53
0101000020E610000084BBB376DB650DC03FE1ECD632334440,147,Residencia Los Nogales - Pacífico,28007,Madrid,91 434 19 40,Privada,441,www.los-nogales.es/pacifico-residencia-mayores-madrid/,40.399989,-3.674735,España,Calle CerrodelaPlata 3
0101000020E6100000B3EE1F0BD1610DC049F3C7B436334440,148,Residencia La Purísima Concepción,28007,Madrid,91 551 78 44 / 91 551 14 55,Privada sin fin de lucro,156,www.fundacioncatalinasuarez.org,40.400107,-3.672762,España,Avenida CiudaddeBarcelona 85
0101000020E61000000AF4893C495A0DC0DBC1887D02344440,149,Casa de Santa María,28007,Madrid,91 551 60 31 / 91 551 30 18,Privada,24,www.residenciasantamaria.es,40.406326,-3.669085,España,Avenida delMediterráneo 48-2ªplantay1ºAyB
0101000020E6100000E76D6C76A45A0DC00C06D7DCD1354440,150,Residencia de personas mayores Colegio de la Paz,28007,Madrid,91 409 09 43 / 91 409 16 11 / 91 409 11 64,Pública autonómica,80,,40.420467,-3.669259,España,Calle DoctorEsquerdo 44
0101000020E610000033FD12F1D6590DC08D25AC8DB1354440,151,GERIASA,28007,Madrid,91 557 22 30 / 669 40 18 90 / 669 40 18 89,Privada,185,www.geriasa.es,40.419481,-3.668867,España,Calle DoctorEsquerdo 63
0101000020E610000098840B7904570DC06EDA8CD310354440,152,Apartamentos municipales para mayores Retiro,28007,Madrid,91 557 13 19,Pública local,32,,40.414576,-3.667489,España,Calle JoséMartínezdeVelasco 22
0101000020E61000003DEFC682C2E00DC044C18C2958374440,153,Casasolar Santo Duque de Gandía,28008,Madrid,91 541 62 97,Privada sin fin de lucro,180,www.residenciacasasolar.es,40.432378,-3.734746,España,Calle AnicetoMarinas 114
0101000020E6100000755776C1E0BA0DC07FBDC282FB354440,154,Sanitas Residencial Jardines de Sabatini,28008,Madrid,900 81 82 65,Privada,75,www.sanitas.es/sanitasresidencial/residencias-mayores/residencia-jardines-de-sabatini,40.421738,-3.716249,España,Calle Arriaza 16
0101000020E61000006FB88FDC9AB40DC05F99B7EA3A364440,155,Residencia de ancianos Santa Teresa y San José,28008,Madrid,91 541 29 96,Privada,24,,40.423673,-3.713186,España,Plaza deEspaña 14
0101000020E6100000E5266A696EC50DC04698A25C1A374440,156,Sanitas Residencial Ferraz,28008,Madrid,91 544 22 48,Privada,73,www.sanitas.es/sanitasresidencial/residencias-mayores/residencia-ferraz,40.430492,-3.721402,España,Calle Ferraz 92
0101000020E610000014CAC2D7D75A0DC082A966D652364440,157,Residencia de Personas Mayores Goya,28009,Madrid,91 276 10 00,Pública autonómica,51,,40.424403,-3.669357,España,Calle DoctorEsquerdo 26
0101000020E6100000EF3A1BF2CF8C0DC02C499EEBFB364440,158,Asilo de ancianos - Hermanitas de los Pobres,28010,Madrid,91 319 20 96,Privada sin fin de lucro,94,,40.429563,-3.693756,España,"Calle Almagro 7(entradaporC/Zurbarán,4)"
0101000020E610000035971B0C75980DC0836DC493DD364440,159,Ballesol Francisco de Rojas,28010,Madrid,91 446 42 05,Privada,123,ballesol.es/residencias-para-mayores-en-la-comunidad-de-madrid/ballesol-francisco-de-rojas/,40.428637,-3.699442,España,Calle FranciscodeRojas 4
0101000020E61000003B8E1F2A8D980DC0199293895B374440,160,Ballesol Olavide,28010,Madrid,91 447 52 56,Privada,179,ballesol.es/residencias-para-mayores-en-la-comunidad-de-madrid/ballesol-olavide,40.432481,-3.699488,España,Calle JuandeAustria 9
0101000020E61000002FF834272F920DC0DC2F9FAC18384440,161,Residencia San Vicente,28010,Madrid,91 445 75 14,Privada sin fin de lucro,50,,40.438253,-3.696379,España,Calle ModestoLafuente 11
0101000020E6100000F7730AF2B3F10DC0E46A64575A344440,162,Residencia Monte Hermoso,28011,Madrid,91 526 75 85,Privada,130,monte-hermoso.es,40.409007,-3.743019,España,Calle DoctorBlancoNájera 6
0101000020E610000014CB2DAD86A40DC067EF8CB62A374440,163,Residencia sacerdotal San Pedro,28015,Madrid,91 447 42 00,Privada sin fin de lucro,95,,40.430991,-3.705335,España,Calle SanBernardo 101
0101000020E610000005C1E3DBBBA60DC00CE6AF90B9364440,164,Nuestra Señora de Montserrat - Fundación benéfico social,28015,Madrid,91 447 12 50,Privada sin fin de lucro,96,residenciamontserrat.es,40.427538,-3.706413,España,Calle SanBernardo 79
0101000020E6100000E316F37343530DC0D28A6F287C3A4440,165,Centro residencial de mayores Ave María,28016,Madrid,91 413 45 88,Privada,38,www.crmayoresavemaria.com,40.456914,-3.665656,España,Avenida delÁster 24
0101000020E61000006A3524EEB1740DC0D789CBF10A3A4440,166,Residencia San Juan de Dios,28016,Madrid,91 344 00 20,Privada sin fin de lucro,49,residencia-sanjuandedios.es,40.453459,-3.68198,España,Calle HerrerosdeTejada 3
0101000020E6100000452BF702B3620DC0992CEE3F323B4440,167,Residencia Maestro Lassalle,28016,Madrid,91 359 17 45,Privada,21,,40.462471,-3.673193,España,Calle MaestroLassalle 6
0101000020E610000024F1F274AE080DC0DF1B430070364440,168,AMAVIR Ciudad Lineal,28017,Madrid,91 327 61 99,Privada,180,www.amavir.es/residencia-de-mayores-amavir-ciudad-lineal,40.425293,-3.629239,España,Calle GabrielMontero 3
0101000020E6100000FCDD3B6A4C480DC051853FC39B314440,169,Residencia para mayores Madrid Sur,28018,Madrid,91 380 78 70,Pública autonómica,140,www.domusvi.es/residencia-mayores-madrid-sur,40.387566,-3.660302,España,Calle JavierdeMiguel 42
0101000020E61000006408008E3DDB0DC082700514EA314440,170,Los Nogales Vista Alegre,28019,Madrid,91 472 00 20,Privada,98,www.los-nogales.es/vista-alegre-residencia-tercera-edad-madrid,40.389956,-3.732051,España,Calle VistaAlegre 4-6
0101000020E6100000B01EF7ADD6690DC072158BDF142C4440,171,AMAVIR Villaverde,28021,Madrid,91 505 52 00,Privada,180,www.amavir.es/residencia-de-mayores-amavir-villaverde,40.344387,-3.676679,España,Calle Berrocal 42
0101000020E6100000D2C8E7154F7D0DC0F7393E5A9C2D4440,172,Residencia Villaverde Alzheimer,28021,Madrid,91 723 09 61,Pública autonómica,52,,40.356334,-3.686186,España,Carretera deVillaverdeaVallecas 38
0101000020E6100000143B1A87FA7D0DC0F3AB3940302D4440,173,Apartamentos Tutelados para personas mayores María Orúe,28021,Madrid,91 710 04 84,Pública autonómica,28,sanivida.es/project/pisos-tutelados-para-mayores/,40.353035,-3.686513,España,Calle MaríaOrúe 1A
0101000020E61000008CF337A110C10DC04CA60A46252D4440,174,Residencia de personas mayores Plata y Castañar,28021,Madrid,91 798 79 12,Pública autonómica,220,www.albertia.es/residencias/residencia-playa-y-castanar/,40.3527,-3.71927,España,Paseo PlatayCastañar 38
0101000020E6100000608DB3E908E00CC05AB8ACC266364440,175,Residencia Geriátrica 3ª Edad Las Rosas Madrid,28022,Madrid,91 313 09 54 / 651 93 76 27,Privada,42,,40.425011,-3.609392,España,Calle Butrón 14
0101000020E61000006A85E97B0DE10CC09CFD8172DB384440,176,Residencia de ancianos Nuestra Señora del Pilar,28022,Madrid,91 741 17 62,Privada sin fin de lucro,55,,40.444197,-3.609889,España,Calle delaEsfinge 34
0101000020E61000005A677C5F5CEA0CC09AED0A7DB0384440,177,Residencia para la 3ª edad Virgen Llana,28022,Madrid,91 320 13 70,Privada,11,,40.442886,-3.614434,España,Calle SantaTecla 24
0101000020E6100000E6E786A6ECD40CC046B247A819364440,178,Orpea San Blas,28022,Madrid,91 775 99 91,Privada,180,orpea.es/centros-residencias/centro-dia-residencia-ancianos-madrid-san-blas,40.422658,-3.603967,España,Calle Zurich 16
0101000020E6100000732EC555653F0EC04084B872F63A4440,179,Residencia de 3ª edad Las Mercedes,28023,Madrid,91 307 01 76,Privada,20,,40.460646,-3.780955,España,Calle AnaTeresa 7
0101000020E6100000420B09185D3E0EC028F4FA93F83A4440,180,Residencia de 3ª edad Retiro de Aravaca,28023,Madrid,91 307 06 08,Privada,47,www.retiroaravaca.com,40.460711,-3.780451,España,Calle AnaTeresa 1
0101000020E610000030B95164AD410EC0813FFCFCF73A4440,181,Residencia de mayores Jardín de Aravaca,28023,Madrid,91 357 99 99,Privada,21,www.residenciageriatricajardindearavaca.com,40.460693,-3.782069,España,Calle AnaTeresa 11
0101000020E6100000D32F116F9D3F0EC003999D45EF3A4440,182,Residencia Ana Teresa,28023,Madrid,91 307 06 01,Privada,,,40.460427,-3.781062,España,Calle AnaTeresa 5
0101000020E6100000889D29745E430EC0B8CB7EDDE93A4440,183,Residencia Ardales,28023,Madrid,91 357 21 41,Privada,17,,40.460262,-3.782895,España,Calle Ardales 4
0101000020E6100000EE21E17B7F430EC06F490ED8D53A4440,184,Residencia de 3ª edad Castalia,28023,Madrid,91 357 47 47,Privada,24,www.residenciadeancianos-madrid.com,40.459651,-3.782958,España,Calle Ardales 2
0101000020E6100000AA2688BA0F600EC0B9C15087153C4440,185,Residencia hogar San Enrique y Santa Rita,28023,Madrid,91 307 93 40 / 91 307 93 41,Privada sin fin de lucro,96,,40.469407,-3.796905,España,Calle ArenasyNavarro 16
0101000020E61000004C4F58E201450EC0C005D9B27C3B4440,186,Ecoplar Aravaca,28023,Madrid,91 740 05 66,Privada,200,www.ecoplar.com,40.464743,-3.783695,España,Calle BlancadeCastilla 8
0101000020E610000036E49F19C4270EC01F84807C093B4440,187,Centro Clínico Geriátrico Pinar de Aravaca,28023,Madrid,91 307 07 07,Privada,119,pinardearavaca.es,40.461227,-3.769417,España,Calle Camarines 2
0101000020E6100000D1C952EBFD260EC054539275383C4440,188,Residencia El Pardo de Aravaca,28023,Madrid,91 740 04 90,Privada,88,www.elpardodearavaca.com,40.470473,-3.769039,España,Calle DaríoAparicio 33-35
0101000020E6100000E6E8F17B9B3E0EC070CD1DFD2F394440,189,Orpea Madrid Aravaca,28023,Madrid,91 387 87 90,Privada,240,orpea.es/centros-residencias/residencia-ancianos-madrid-aravaca,40.446777,-3.78057,España,Avenida delTalgo 53
0101000020E61000009A215514AF320EC009C4EBFA053B4440,190,Residencia Santísima Trinidad,28023,Madrid,91 357 22 68,Privada sin fin de lucro,54,www.josefinas-trinitarias.org,40.46112,-3.774748,España,Avenida OsaMayor 8
0101000020E61000005874EB353D680EC0992A1895D43B4440,191,Residencia Juan XXIII,28023,Madrid,91 372 96 07,Privada,40,www.residenciajuan23.com,40.467425,-3.800898,España,Calle Proción 10
0101000020E6100000AAD72D02635D0EC007B7B585E73B4440,192,Sanitas Residencial La Florida,28023,Madrid,91 740 03 86,Privada,130,www.sanitas.es/sanitasresidencial/residencias-mayores/residencia-florida,40.468003,-3.795599,España,Calle ValledeToranzo 3-5
0101000020E61000001D925A28999C0EC0F8A57EDE543C4440,193,Casablanca El Plantío,28023,Madrid,91 372 81 02,Privada,59,www.grupocasablanca.es/casablancaPL.htm,40.47134,-3.826464,España,Avenida Victoria 74
0101000020E61000003D0CAD4ECE900EC08597E0D4073C4440,194,Casablanca Madrid,28023,Madrid,91 307 71 77,Privada,71,www.grupocasablanca.es/residencias/casablanca-madrid,40.468989,-3.820706,España,Avenida Victoria 36
0101000020E6100000C1E10511A9A90EC09126DE019E3C4440,195,Residencia Los Enebros,28023,Madrid,91 372 97 74,Privada,38,,40.473572,-3.832842,España,Avenida Victoria 120
0101000020E61000003A8F8AFF3B820EC05A2DB0C7443C4440,196,Residencia La Florida,28023,Madrid,91 372 94 98 / 91 372 90 05 / 618 31 70 28,Privada,23,www.residencialaflorida.eu,40.470849,-3.813591,España,Calle Zarauz 6-Urb.LaFlorida
0101000020E61000001AF9BCE2A9270EC0546EA296E6324440,197,Sagrada Familia,28024,Madrid,91 518 26 40,Privada,67,,40.397662,-3.769367,España,Calle Villaviciosa 24
0101000020E610000068588CBAD6FE0DC017B9A7AB3B304440,198,Residencia geriátrica María Auxiliadora,28025,Madrid,91 465 18 23 / 91 465 64 22,Privada,71,maria-auxiliadora.es,40.376821,-3.749433,España,Calle EugeniadeMontijo 79
0101000020E6100000C03C64CA87E00DC032CC09DAE4304440,199,Residencia de mayores Gran Residencia,28025,Madrid,91 462 58 00,Pública autonómica,460,,40.381984,-3.734634,España,Calle GeneralRicardos 177
0101000020E61000000B7BDAE1AFE90DC00EBBEF181E314440,200,Residencia de personas mayores Vista Alegre,28025,Madrid,91 462 94 14,Pública autonómica,204,,40.383731,-3.739105,España,Calle GeneralRicardos 177
0101000020E6100000D68A36C7B9AD0DC0838593347F304440,201,Residencia y apartamentos tutelados Usera,28026,Madrid,91 330 72 00,Pública autonómica,160,www.domusvi.es/residencia-mayores-madrid-usera,40.378882,-3.709827,España,Calle CristodelaVictoria 247
0101000020E6100000BCCD1B2785590DC0C00303081F364440,202,Mi Casa - Hermanitas de los Pobres,28028,Madrid,91 574 29 88,Privada sin fin de lucro,93,,40.422822,-3.668711,España,Calle DoctorEsquerdo 49
0101000020E6100000ACFF73982F4F0DC056F146E691374440,203,Residencia municipal Margarita Retuerto,28028,Madrid,91 724 14 48,Pública local,90,www.asispa.org/servicios/residencias-asistidas/titularidad-publica-gestionadas-por-asispa/residencia-margarita-,40.43414,-3.663665,España,Calle FranciscoAltimiras 2
0101000020E610000024D40CA9A2580DC0BA826DC493374440,204,Residencia de 3ª edad Vuestra Casa II,28028,Madrid,91 725 79 04,Privada,27,,40.434197,-3.668279,España,Calle MartínezIzquierdo 37
0101000020E61000000070ECD973590DC0B60E0EF626384440,205,Residencia La Guindalera,28028,Madrid,91 713 17 70,Privada sin fin de lucro,56,,40.438689,-3.668678,España,Calle PintorMorenoCarbonero 15
0101000020E6100000C51D6FF25B540DC0C6F7C5A52A374440,206,Residencia de 3ª edad Vuestra Casa I,28028,Madrid,91 355 24 71,Privada,29,,40.430989,-3.666191,España,Calle Roma 16-18
0101000020E6100000B282DF86188F0DC092B245D26E3C4440,207,Residencia Isabel La Católica,28029,Madrid,91 732 18 80,Pública autonómica,218,www.araliaservicios.es/centro/madrid-ventilla,40.472132,-3.694871,España,Calle JoaquínDicenta 27
0101000020E61000008B34F10EF0840DC01CF0F961843C4440,208,Residencia Jesús Nazareno y los Dolores,28029,Madrid,91 315 55 45 / 91 315 55 46,Privada sin fin de lucro,95,,40.47279,-3.689911,España,Calle Magnolias 105
0101000020E61000001E317A6EA10B0DC050FBAD9D28334440,209,Albertia Moratalaz,28030,Madrid,91 324 68 00,Privada,190,www.albertia.es/residencias/albertia-moratalaz,40.399677,-3.630679,España,Calle HaciendadePavones 261
0101000020E6100000C2853C821B090DC0F12C414640334440,210,Residencia Fundación Santa Lucía - Moratalaz,28030,Madrid,91 773 04 83,Privada sin fin de lucro,70,,40.400399,-3.629447,España,Calle LuisdeHoyosSainz 196
0101000020E6100000CB4A9352D00D0DC0CF66D5E76A334440,211,Fundación Residencia San Francisco de Paula,28030,Madrid,91 371 01 58,Privada,74,,40.4017,-3.631745,España,Calle Valdebernardo 29
0101000020E61000004757E9EE3AFB0CC05A0F5F268A304440,212,Residencia Castellar,28031,Madrid,91 222 01 50 / 91 222 01 41 / 91 380 87 82,Privada,34,www.residenciascastellar.com,40.379216,-3.622671,España,Calle SierraVieja 73
0101000020E61000009622F94A20050DC0B6847CD0B32F4440,213,Centro Alzheimer Fundación Reina Sofía,28031,Madrid,91 385 23 00,Pública autonómica,156,,40.372675,-3.627503,España,Calle Valderrebollo 5
0101000020E61000002976340EF5DB0CC055A2EC2DE5304440,214,Los Nogales Santa Eugenia,28031,Madrid,91 305 29 90,Privada,286,www.los-nogales.es/santa-eugenia-residencia-ancianos-madrid,40.381994,-3.607401,España,Calle Zazúar 15
0101000020E6100000887FD8D2A3E90CC05051F52B9D354440,215,Residencia Adolfo Suárez,28032,Madrid,91 322 09 00,Pública autonómica,280,,40.418859,-3.614082,España,Calle delaRávena 18
0101000020E610000084622B685A020DC0C95A43A9BD324440,216,AMAVIR Valdebernardo,28032,Madrid,91 301 66 60,Privada,180,www.amavir.es/residencia-de-ancianos-madrid-amavir-valdebernardo,40.396413,-3.626149,España,Calle LaderadelosAlmendros 44
0101000020E6100000A0E3A3C519230DC09C4EB2D5E53C4440,217,Los Nogales Hortaleza,28033,Madrid,91 863 64 58,Privada,365,www.los-nogales.es/hortaleza-residencia-mayores-madrid,40.475764,-3.642139,España,Calle Alcobendas 12
0101000020E6100000FDA36FD234480DC0C5E6E3DA503B4440,218,DomusVi Arturo Soria,28033,Madrid,91 300 13 90,Privada,145,www.domusvi.es/residencia-mayores-madrid-arturo-soria,40.463405,-3.660257,España,Calle DuquesadeCastrejón 18-20
0101000020E6100000A8565F5D15480DC04A9BAA7B643B4440,219,Los Robles Gerhoteles Madrid,28033,Madrid,91 744 52 80,Privada,170,www.losroblesgerhoteles.com,40.464004,-3.660197,España,Calle DuquesadeCastrejón 19
0101000020E61000003AB35DA10F560DC07E5182FE423D4440,220,Residencia Jazmín,28033,Madrid,91 383 65 20,Pública local,59,www.asispa.org/servicios/residencias-asistidas/titularidad-publica-gestionadas-por-asispa/residencia-jazmin-_ma,40.478607,-3.667022,España,Calle Jazmín 48
0101000020E6100000CCB22781CD390DC00377A04E793C4440,221,Residencia Avenida San Luis,28033,Madrid,91 382 20 92,Privada,99,residenciaavenidasanluis.com,40.472452,-3.653224,España,Avenida SanLuis 58
0101000020E6100000734A404CC2A50DC0AB251DE5603E4440,222,Residencia de 3ª edad Atenea - Mirasierra,28034,Madrid,91 731 05 70,Privada,44,residenciaatenea.es,40.487332,-3.705937,España,Avenida CardenalHerreraOria 162
0101000020E6100000D25790662CBA0DC0D7A205685B3F4440,223,Residencia para personas mayores Nuestra Señora del Camino,28034,Madrid,91 736 47 94,Privada sin fin de lucro,71,www.fundacionnscamino.org,40.494977,-3.715905,España,Calle ColladodeTirobarra 6
0101000020E6100000C9ACDEE176A80DC0A46C91B41B3F4440,224,Sanitas Residencial Mirasierra,28034,Madrid,91 735 32 70,Privada,125,www.sanitas.es/sanitasresidencial/residencias-mayores/residencia-mirasierra,40.493033,-3.707258,España,Calle Nuria 40
0101000020E610000082902C6002B70DC03B70CE88D23E4440,225,Residencia para mayores Mirasierra,28034,Madrid,91 734 14 10 / 91 734 16 26 / 91 734 08 76,Pública autonómica,220,www.domusvi.es/residencia-mayores-madrid-mirasierra,40.4908,-3.71436,España,Calle PorteradelCura 1
0101000020E61000007AF99D2633BE0DC02387889B533F4440,226,Centro geriátrico Ecoplar Mirasierra,28034,Madrid,91 387 60 50,Privada,75,www.ecoplar.com,40.494739,-3.717871,España,Calle VentisquerodelaCondesa 46
0101000020E610000035EB8CEF8BCB0DC078CF81E5083B4440,227,Sanitas Residencial Puerta de Hierro,28035,Madrid,91 398 00 17,Privada,45,www.sanitas.es/sanitasresidencial/residencias-mayores/residencia-puerta-hierro,40.461209,-3.724388,España,Calle AlfonsoFernándezClausells 2
0101000020E6100000EC4ACB48BDC70DC04A09C1AA7A3B4440,228,Residencia Lusanz,28035,Madrid,91 316 58 71,Privada,22,www.residencialusanz.com,40.464681,-3.722529,España,Calle Aurora 9
0101000020E610000025766D6FB7C40DC0F8C1F9D4B13C4440,229,Residencia Los Nogales Puerta de Hierro,28035,Madrid,91 789 20 09,Privada,220,www.los-nogales.es/puerta-de-hierro-residencia-de-ancianos-madrid,40.474177,-3.721053,España,Calle CésarManrique 11
0101000020E61000008DB5BFB33DBA0DC090A16307953E4440,230,Ballesol Mirasierra,28035,Madrid,91 738 90 22,Privada,232,ballesol.es/residencias-para-mayores-en-la-comunidad-de-madrid/ballesol-mirasierra/,40.488923,-3.715938,España,Calle ColladodeCerroMalejo 5-7
0101000020E610000071E7C2482FCA0DC0BADA8AFD653B4440,231,Residencia Fundación Sagrada Familia,28035,Madrid,91 316 65 66,Privada,46,www.fundacionsf.es/?page_id=53,40.46405,-3.723723,España,Calle IsidroDompablo 10
0101000020E61000006E693524EED10DC095BBCFF1D13C4440,232,Residencia Padre Eladio,28035,Madrid,91 373 37 67,Privada sin fin de lucro,65,www.josefinas-trinitarias.org,40.475157,-3.727505,España,Calle IslasBikini 6
0101000020E610000094A46B26DFCC0DC0533D997FF43B4440,233,Residencia Sagrada Familia,28035,Madrid,91 316 05 42 / 91 386 20 65,Privada,30,www.fundacionsf.es/?page_id=58,40.468399,-3.725035,España,Calle ManuelNieto 1
0101000020E61000004E0D349F73770DC0ADFBC742743A4440,234,Residencia Santísima Virgen y San Celedonio,28036,Madrid,91 457 19 60,Privada,164,www.fsvsc.es,40.456673,-3.683326,España,Calle CondesdeVal 11
0101000020E6100000EA025E66D8680DC0FEEE1D35263C4440,235,Residencia Santa Filipina,28036,Madrid,91 767 22 76,Privada,32,,40.469916,-3.676194,España,Avenida deBurgos 4
0101000020E6100000064B75012F730DC04774CFBA463B4440,236,"Clínica Geriátrica Imbea - Morejón, S. A.",28036,Madrid,91 359 56 00,Privada,30,www.residenciaimbea.com,40.463096,-3.681242,España,Calle MenéndezPidal 25
0101000020E61000008204C58F31770DC05F5E807D743A4440,237,Centro residencial Valmonte,28036,Madrid,91 458 48 00,Privada,140,www.valmonte.es,40.45668,-3.6832,España,Calle RomeroGirón 9
0101000020E6100000E0F599B33E450DC095D6DF1280334440,238,AMAVIR Puente de Vallecas,28038,Madrid,91 328 70 70,Privada,180,www.amavir.es/residencia-de-ancianos-madrid-amavir-puente-de-vallecas,40.402346,-3.658811,España,Calle BaltasarSantos 2
0101000020E61000003A03232F6B420DC05BEF37DA71334440,239,Pisos tutelados para personas mayores,28038,Madrid,91 430 38 81,Pública autonómica,45,,40.401912,-3.657431,España,Calle BaltasarSantos 6
0101000020E6100000B4CA4C69FD2D0DC08942CBBA7F324440,240,Residencia de personas mayores de Vallecas,28038,Madrid,91 779 14 40,Pública autonómica,173,,40.394523,-3.647456,España,Calle BenjamínPalencia 25
0101000020E6100000EE258DD13AAA0DC058AA0B7899394440,241,Residencia Santa Matilde,28039,Madrid,91 450 82 82,Privada,77,,40.449996,-3.70812,España,Calle SantaMatilde 7
0101000020E610000061C26856B6AF0DC0BD70E7C248394440,242,Los Nogales Reina Victoria,28040,Madrid,91 534 60 00,Privada,98,www.los-nogales.es/reina-victoria-geriatrico-mayores-madrid/,40.447533,-3.710797,España,Calle JuanMontalvo 20-22
0101000020E6100000F6B704E09FB20DC07C0C569C6A394440,243,Residencia Justo Dorado,28040,Madrid,91 535 86 20,Privada,54,www.residenciajustodorado.com,40.448566,-3.712219,España,Calle PedroJustoDorado 5
0101000020E610000064575A46EABD0DC0C45E28603B3A4440,244,Sanatorio geriátrico Los Álamos,28040,Madrid,91 459 11 50 / 91 459 86 55,Privada,34,www.residencialosalamos.es,40.454937,-3.717732,España,Calle Pirineos 37
0101000020E6100000B4E4F1B4FCC00DC02F8A1EF8183A4440,245,Residencia Rafael Alberti,28040,Madrid,91 144 06 34,Privada,100,www.asociacion-chf.com,40.453887,-3.719232,España,Calle Pirineos 55
0101000020E6100000CC9C2E8B898D0DC0A857CA32C42F4440,246,AMAVIR Usera,28041,Madrid,91 500 55 50,Privada,180,www.amavir.es/residencia-de-ancianos-madrid-amavir-usera,40.373175,-3.69411,España,Avenida LaPerla 3
0101000020E6100000BFB67EFACF9A0DC06420CF2EDF2E4440,247,Residencia Orcasur,28041,Madrid,91 369 92 34,Pública autonómica,64,,40.366186,-3.700592,España,Calle Salobreña 2
0101000020E6100000C47AA356989E0DC093196F2BBD2E4440,248,Residencia de personas mayores San José,28041,Madrid,91 317 54 67 / 91 317 54 68,Pública autonómica,48,,40.365148,-3.702439,España,Calle Trévelez 1
0101000020E61000002288F37002B30CC04B732B84D53A4440,249,Sanitas Residencial Alameda,28042,Madrid,91 747 45 04,Privada,118,www.sanitas.es/sanitasresidencial/residencias-mayores/residencia-alameda,40.459641,-3.587407,España,Paseo AlamedadeOsuna 78-B
0101000020E61000002252D32EA6B90CC03C33C170AE3B4440,250,Residencia Montserrat Caballé,28042,Madrid,91 748 15 52,Privada sin fin de lucro,136,,40.466261,-3.590649,España,Calle BahíadeSantaPola 2
0101000020E6100000965F066344E20CC076C3B64599394440,251,"Residencia de 3ª edad La Santina Dos, S. L.",28042,Madrid,91 320 03 54,Privada,50,,40.44999,-3.610482,España,Calle IsladeCuba 2
0101000020E6100000E6C8CA2F83B10CC09225732CEF3C4440,252,Residencia de ancianos Don Bosco,28042,Madrid,91 305 50 87,Privada sin fin de lucro,62,,40.476049,-3.586676,España,Calle PlayadeRiazor 39
0101000020E61000008EB1135E82330DC0778368AD683B4440,253,Residencia de 3ª edad Años Dorados III,28043,Madrid,91 388 22 62 / 91 388 05 48,Privada,36,,40.464132,-3.650151,España,Calle AgustínCalvo 19
0101000020E6100000EC18575C1C350DC09CC1DF2F663B4440,254,Residencia Abedul II,28043,Madrid,91 759 84 56,Privada,29,residenciaabedul.es,40.464056,-3.650933,España,Calle AgustínCalvo 15
0101000020E6100000D4F19881CA380DC086ADD9CA4B3A4440,255,Residencia Las Azaleas,28043,Madrid,91 300 49 51,Privada,67,www.asispa.org/servicios/residencias-asistidas/titularidad-de-asispa/residencia-las-azaleas-_madrid,40.455438,-3.65273,España,Calle BuesodePineda 52
0101000020E6100000193A7650890B0DC083DF8618AF3B4440,256,Centro Geriátrico Hortaleza,28043,Madrid,91 388 41 55 / 652 91 91 45,Privada,96,www.residenciadeancianoscg.com,40.466281,-3.630633,España,Calle delasPedroñeras 38
0101000020E6100000DFDDCA129D450DC02B323A20093B4440,257,Residencia El Jardín,28043,Madrid,696 25 60 63,Privada,25,www.residencia-eljardin.com,40.461216,-3.658991,España,Calle LópezdeHoyos 384
0101000020E6100000E4D9E55B1F360DC0BE33DAAA243A4440,258,Caser Residencial Arturo Soria,28043,Madrid,91 716 00 36,Privada,140,www.caseresidencial.es/arturo-soria,40.454244,-3.651427,España,Calle PuertodeSantaMaría 15
0101000020E6100000757286E28E370DC0503750E09D3A4440,259,Residencia Miraflores II,28043,Madrid,91 300 44 42,Privada,72,www.centrogeriatricomiraflores.com,40.457943,-3.652128,España,Calle Ulises 44
0101000020E610000024EF1CCA50350DC01422E010AA3A4440,260,Residencia Fundación Sagrada Familia,28043,Madrid,91 388 41 19,Privada,35,www.fundacionsf.es/?page_id=19,40.458315,-3.651033,España,Calle Ulises 60
0101000020E6100000BEF6CC9200F50DC0C1CAA145B62F4440,261,Centro Residencial Sanitas Carabanchel,28044,Madrid,91 508 11 10,Privada,224,www.sanitas.es/sanitasresidencial/residencias-mayores/residencia-carabanchel,40.37275,-3.74463,España,Calle AntoniaRodríguezSacristán 10
0101000020E61000007A87DBA161F10DC065170CAEB92F4440,262,Orpea Madrid Buenavista,28044,Madrid,91 511 04 20,Privada,196,orpea.es/centros-residencias/residencia-ancianos-madrid-buenavista,40.372854,-3.742862,España,Calle AntoniaRodríguezSacristán 14
0101000020E6100000CD751A69A91C0EC0E75086AA98304440,263,Residencia Virgen de la Paloma,28044,Madrid,91 706 31 33,Privada,11,,40.379659,-3.763995,España,Calle ÁrboldelCielo 38
0101000020E6100000309A95ED431E0EC0FC5069C4CC304440,264,Ballesol Latina,28044,Madrid,91 710 81 90,Privada,180,ballesol.es/residencias-para-mayores-en-la-comunidad-de-madrid/ballesol-latina/,40.381249,-3.764778,España,Calle Casuarina 4
0101000020E6100000B7EF517FBD020EC071CB4752D22F4440,265,Residencia de 3ª edad Santa María del Sagrario,28044,Madrid,91 508 69 41,Privada,41,residenalba.net/alba-carabanchel,40.373606,-3.751338,España,Plaza delaEmperatriz 12
0101000020E6100000CE72D9E89CFF0DC0E90C8CBCAC2F4440,266,Hogar Santa Teresa Jornet,28044,Madrid,91 508 91 08 / 91 508 58 49,Privada sin fin de lucro,143,,40.372459,-3.749811,España,Calle DuquesadeTamames 8
0101000020E6100000170FEF39B07C0DC0302AA913D0324440,267,Ballesol Pasillo Verde,28045,Madrid,91 506 22 70,Privada,278,ballesol.es/residencias-para-mayores-en-la-comunidad-de-madrid/ballesol-pasillo-verde,40.396975,-3.685883,España,Calle Amaltea 25
0101000020E6100000941799805F830DC0D0F1D1E28C334440,268,Residencia Nuestra Señora del Perpetuo Socorro,28045,Madrid,91 506 05 60 / 91 539 19 84,Privada sin fin de lucro,93,www.residenciaperpetuosocorro.es,40.402737,-3.689147,España,Calle Áncora 42
0101000020E61000004A0A2C8029830DC0D65757056A314440,269,AMAVIR Arganzuela,28045,Madrid,91 506 23 56,Privada,180,www.amavir.es/residencia-de-ancianos-madrid-amavir-arganzuela,40.386048,-3.689044,España,Calle Embajadores 211
0101000020E61000003753211E89F70DC00118CFA0A1314440,270,Residencia Militar de Acción Social de Atención a Mayores Virgen del Carmen,28047,Madrid,91 364 60 00,Pública estatal,160,,40.387745,-3.745867,España,Camino delosIngenieros 2
0101000020E6100000D6E1E82ADDFD0DC04FE61F7D93304440,271,Residencia de 3ª edad Comunidad Marías,28047,Madrid,91 461 77 06,Privada sin fin de lucro,10,,40.379501,-3.748957,España,Avenida NuestraSeñoradeFátima 100-3º
0101000020E6100000E25B5837DEFD0DC0F46A80D250314440,272,Orpea Madrid Carabanchel,28047,Madrid,91 422 08 80,Privada,160,orpea.es/centros-residencias/centro-dia-residencia-ancianos-madrid-carabanchel,40.385279,-3.748959,España,Calle NuestraSeñoradelaLuz 74
0101000020E610000032056B9C4D070EC0C7F5EFFACC314440,273,GERIATEL Aluche,28047,Madrid,91 509 98 84,Privada,55,www.geriatel.es/nuestras-residencias/geriatel-aluche/,40.389068,-3.753566,España,Calle Ocaña 193
0101000020E610000092E86514CB8D0DC023BC3D0801454440,274,Residencia Nuestra Señora del Carmen,28049,Madrid,91 734 34 50,Pública autonómica,422,,40.539094,-3.694235,España,Carretera Cantoblanco 3
0101000020E610000040355EBA498C0DC0DD24068195434440,275,Residencia Casa San Luis Gonzaga - Los Almendros,28049,Madrid,91 734 74 77,Privada sin fin de lucro,45,,40.528,-3.6935,España,Carretera deColmenarViejo Km.14.4
0101000020E61000000475CAA31B810DC0E012807F4A434440,276,Residencia Doctor González Bueno,28049,Madrid,91 734 63 00 / 91 734 77 64 / 91 734 34 54,Pública autonómica,617,,40.525711,-3.688041,España,Carretera deColmenarViejo Km.13.5
0101000020E61000008A58C4B0C3580DC01EC6A4BF973E4440,277,Residencia de mayores de Manoteras,28050,Madrid,91 766 52 22,Pública autonómica,300,,40.489006,-3.668342,España,Calle Oña 3
0101000020E610000077BB5E9A22400DC0F146E6913F404440,278,Orpea Madrid Sanchinarro,28050,Madrid,91 750 21 38,Privada,180,orpea.es/centros-residencias/centro-dia-residencia-ancianos-madrid-sanchinarro,40.50194,-3.656316,España,Calle PadresDominicos 2
0101000020E6100000BC3D0801F9F20CC0BA66F2CD362F4440,279,Residencia Ensanche de Vallecas,28051,Madrid,91 494 86 77,Pública autonómica,160,www.araliaservicios.es/centro/madrid-ensanche-vallecas,40.36886,-3.618639,España,Avenida CerroMilano 1
0101000020E61000005E66D828EB570DC02E73BA2C26324440,281,DomusVi Albufera,28053,Madrid,91 757 05 10,Privada,143,www.domusvi.es/residencia-de-mayores-en-madrid-albufera,40.39179,-3.667929,España,Calle SierraAlcubierre 8
0101000020E6100000128942CBBADF0EC0EBC6BB23633D4440,282,Ballesol Majadahonda,28221,Majadahonda,91 639 56 11,Privada,133,ballesol.es/residencias-para-mayores-en-la-comunidad-de-madrid/ballesol-majadahonda/,40.479588,-3.859243,España,Calle Cierzo 7-ColoniaAiresolI
0101000020E61000005F46B1DCD2EA0EC0E4F90CA8373B4440,283,Centro Tercera Edad San Luis Gonzaga,28221,Majadahonda,91 634 00 76,Privada,202,www.residenciasanluisgonzaga.es,40.462636,-3.86466,España,Calle MarEgeo 51
0101000020E6100000AFEAAC16D8030FC0DE57E542E5394440,284,Residencia Valle de la Oliva,28222,Majadahonda,91 679 99 63,Pública local,130,www.albertia.es/residencias/albertia-valle-de-la-oliva/,40.452309,-3.876877,España,Calle ManueldeFalla 35
0101000020E610000065C5707500840FC0B0AD9FFEB35C4440,285,Residencia Ponderosa Real,28410,Manzanares el Real,91 857 38 38,Privada,91,www.ponderosareal.com,40.724243,-3.939454,España,Avenida Maderuelos 5
0101000020E6100000D7BFEB33679D0AC0BE50C07630464440,286,Orpea Meco,28880,Meco,91 886 16 66,Privada,147,orpea.es/centros-residencias/centro-dia-residencia-ancianos-alcala-henares,40.548354,-3.326857,España,Calle Roble 11
0101000020E6100000B610E4A084190EC02B8716D9CE674440,287,Residencia municipal El Perpetuo Socorro,28792,Miraflores de la Sierra,91 844 33 55,Pública local,28,,40.811,-3.76246,España,Calle Crucero s/n
0101000020E6100000A0A3552DE9A80CC0556CCCEB885D4440,288,Residencia Isla de Kos,28710,Molar (El),91 841 08 12,Privada,90,www.isladekos.com,40.730741,-3.582476,España,Avenida deMadrid 8
0101000020E61000008A3E1F65C45510C0C02500FF945A4440,289,Casa de ancianos Hermanitas de los Pobres,28460,Molinos (Los),91 855 16 80,Privada sin fin de lucro,36,,40.707672,-4.083757,España,Calle VirgendelEspino 1
0101000020E61000008BE1EA00883B0CC0E04BE141B3874440,290,Residencia municipal Nazaret,28190,Montejo de la Sierra,91 869 72 80,Pública local,58,,41.060158,-3.529068,España,Calle Cruces 2
0101000020E6100000C634D3BD4EEA0EC0BED87BF145214440,291,Residencia Nuestra Señora del Sagrario,28950,Moraleja de Enmedio,91 609 40 09 / 91 609 40 12,Privada,80,www.residencianssagrario.es,40.259947,-3.864408,España,Avenida deArroyomolinos 3
0101000020E610000052094FE8F5070FC07A8A1C226E224440,292,Residencia Nuestra Señora de la Montaña II,28950,Moraleja de Enmedio,91 600 50 30,Privada,23,www.residencianuestrasenoradelamontana.es,40.268986,-3.878887,España,Urbanización LasColinas 8
0101000020E6100000842F4CA60AC60FC0BC0512143F564440,293,Residencia Fuente de Salud,28411,Moralzarzal,91 857 61 57 / 91 857 81 21,Privada,37,www.residenciafuentesalud.es,40.6738,-3.9717,España,Calle deEspaña 3
0101000020E61000001FA1664815A50FC0DB85E63A8D5A4440,294,Residencia Bellas Vistas Moralzarzal,28411,Moralzarzal,91 857 41 54,Privada,48,,40.707435,-3.955607,España,Calle ElGamonal 3
0101000020E61000001004C8D0B1C30FC00C04013274564440,295,Centro para mayores Santa Isabel,28411,Moralzarzal,91 842 10 99,Privada,48,www.cpmsantaisabel.com,40.675421,-3.970554,España,Calle Valleja 30
0101000020E6100000E71890BDDE7D0BC057CF49EF1B1D4440,296,Residencia de ancianos Virgen de la Antigua - Fundación Mac-Crohon,28530,Morata de Tajuña,91 873 00 54,Privada,98,,40.227415,-3.43646,España,Calle Asilo 2
0101000020E6100000B9C2BB5CC4370BC0BD5296218E1D4440,297,Residencia Isla de Taray,28530,Morata de Tajuña,91 873 13 28,Privada sin fin de lucro,214,,40.2309,-3.40223,España,Carretera deMorata-PeralesdeTajuña Km.3.3
0101000020E6100000562B137EA97F0BC09CE09BA6CF1C4440,298,Residencia La Torre,28530,Morata de Tajuña,91 873 01 71 / 91 873 03 64,Privada,88,www.residencialatorre.es,40.225087,-3.437335,España,Calle delCarmen 37
0101000020E61000009AE95E27F5650FC0C0266BD443284440,299,Residencia Coímbra Park,28935,Móstoles,91 645 56 00 / 91 645 59 99,Privada,34,www.residenciacoimbrapark.com,40.31457,-3.924784,España,Calle Arizónicas 14
0101000020E61000008638D6C56D740FC04850FC1873274440,300,Residencia de personas mayores Parque Coímbra,28935,Móstoles,91 646 18 93,Pública autonómica,220,,40.3082,-3.93185,España,Avenida delosSauces 55
0101000020E610000017D68D7747660FC039639813B4274440,301,Residencia de 3ª edad Alameda Coímbra,28935,Móstoles,91 647 85 33,Privada,28,,40.310183,-3.924941,España,Calle Eucalipto 10
0101000020E6100000E92807B309100FC071CADC7C232A4440,302,Residencia Las Camelias,28935,Móstoles,91 613 23 81,Privada,231,www.bastondeoro.com/residencia-las-camelias.html,40.329208,-3.882831,España,Avenida Olímpica 36-ElSoto
0101000020E6100000D60451F701080FC0C974E8F4BC274440,303,DomusVi Ciudad de Móstoles,28935,Móstoles,91 648 01 46,Privada,180,www.domusvi.es/residencia-ancianos-madrid-mostoles-mostoles,40.310454,-3.87891,España,Calle RíoSegura 29
0101000020E6100000F0A485CB2AEC0EC0001AA54BFF284440,304,Residencia para personas mayores de Móstoles,28938,Móstoles,91 664 76 67,Pública local,35,,40.320291,-3.865316,España,Calle JuanXXIII 6
0101000020E6100000AB09A2EE031010C0085BECF659254440,305,Residencia municipal Virgen de la Concepción,28600,Navalcarnero,91 811 48 82,Pública local,60,,40.291808,-4.01564,España,Plaza Buenavista 29
0101000020E61000009E2633DE560A10C0DB6B41EF8D254440,306,Residencia de 3ª edad La Asunción,28600,Navalcarnero,91 811 12 12,Privada,78,www.grupocasaverde.com/centro-para-mayores-casaverde-la-asuncion,40.293394,-4.010097,España,Paseo delaEstación 18
0101000020E61000001346B3B27D0810C0A4A65D4C33254440,307,Residencia Nava Real,28600,Navalcarnero,91 737 20 42 / 677 34 46 20,Privada,173,www.residencianavareal.com,40.290628,-4.008292,España,Ronda deSanJuan 11
0101000020E6100000D1AE42CA4F0A10C03D9B559FAB254440,308,Residencia La Aurora,28600,Navalcarnero,91 811 11 64,Privada,177,www.la-aurora.es,40.2943,-4.01007,España,Paseo DonMigueldeRibagordaGómez 1
0101000020E610000005C1E3DBBB0610C0DFE00B93A9244440,309,Casaverde Navalcarnero,28600,Navalcarnero,91 811 24 93,Privada,112,www.grupocasaverde.com/centro-casaverde-navalcarnero,40.286425,-4.006576,España,Calle JoséMaríaLópezMalla 3
0101000020E6100000037D224F920E10C015AC71361D254440,310,Residencia municipal Mariana de Austria,28600,Navalcarnero,91 810 11 50,Pública local,45,,40.289954,-4.01423,España,Calle LaDoctora 8
0101000020E6100000ACE5CE4C300C10C0B7B6F0BC54244440,311,Residencia de 3ª edad - Asociación Rosas del Camino,28600,Navalcarnero,91 811 10 01 / 91 811 10 59,Privada,30,perso.wanadoo.es/rosasdelcamino,40.283836,-4.011903,España,Calle SanRoque 77
0101000020E61000008331225168F90FC0B5503239B5254440,312,Residencia de Navalcarnero,28600,Navalcarnero,91 811 15 11,Pública autonómica,120,,40.294593,-3.996781,España,Avenida VíctimasdelTerrorismo s/n
0101000020E6100000EDD79DEE3C0111C09831056B9C314440,313,Residencia de 3ª edad Navas del Rey,28695,Navas del Rey,91 865 03 80 / 91 865 03 95,Privada,28,,40.387586,-4.251209,España,Calle AparejadorPedrodeTolosa 1
0101000020E610000087A4164A26F710C0E50AEF7211314440,314,Residencias Los Jardines de Navas,28695,Navas del Rey,91 865 03 11,Privada,40,,40.383345,-4.241357,España,Calle SandroPertini 8
0101000020E6100000591822A7AFA709C0594FADBEBA244440,315,Residencia Bellaescusa,28570,Orusco de Tajuña,91 876 12 02,Privada,152,www.residenciabellaescusa.com,40.286949,-3.206878,España,Calle MiguelHernández 1
0101000020E610000053758F6CAE1A0CC0E9D66B7A50404440,316,Centro Asistencial GEROINNOVA MIRAMADRID,28860,Paracuellos de Jarama,91 230 42 00,Privada,170,miramadrid.geroinnova.com,40.502456,-3.513028,España,Calle GaspardeMorales 1
0101000020E6100000DD96C80567300EC057AF22A3031E4440,317,Residencia de 3ª edad Ermita,28981,Parla,91 699 93 99,Privada,30,,40.234486,-3.773634,España,Calle Orquídea 5
0101000020E6100000A6CF0EB8AE180EC0C4263273811D4440,318,Residencia geriátrica lunion Parla,28982,Parla,91 664 42 09,Privada,180,sociosanitario.ilunion.com/servicios/centros-residenciales/comunidad-de-madrid-madrid/parla-residencia-para-mayores-y-centro-de,40.230513,-3.762052,España,Calle FelipeII 23
0101000020E61000000E48C2BE9D240EC020240B98C01D4440,319,Vitalia Parla,28982,Parla,91 283 01 90,Privada,165,www.vitaliahome.es/project/parla/,40.23244,-3.767879,España,Calle FernandoIIIElSanto 17
0101000020E610000036902E36AD140EC0A20BEA5BE61E4440,320,Residencia de personas mayores de Parla,28982,Parla,91 698 51 61,Pública autonómica,64,,40.241405,-3.760096,España,Calle Zuloaga 2
0101000020E6100000B66AD784B4E60BC01B6327BC046D4440,321,Residencia municipal de mayores de AMAVIR Patones,28189,Patones,91 843 21 50,Pública local,90,www.amavir.es/residencias-de-mayores-amavir-patones,40.851707,-3.487649,España,Calle CanaldeIsabelII 23
0101000020E610000013F1D6F9B7CB0CC0193BE125385F4440,322,Residencia San Miguel,28723,Pedrezuela,91 843 48 65,Privada,42,www.sanmiguelpedrezuela.es,40.743901,-3.599472,España,Paseo delaErmita 28
0101000020E61000005FB532E197DA0CC0A034D428245F4440,323,Gerontos Pedrezuela,28723,Pedrezuela,91 843 37 80,Privada,44,www.gerontos.com,40.743291,-3.606735,España,Calle Eras 96
0101000020E6100000F2E9B12D03CE0CC0B47405DB885F4440,324,Residencia Las Fuentes,28723,Pedrezuela,91 843 37 80,Privada,95,,40.746364,-3.600592,España,Calle Fuente 44
0101000020E610000073672618CE5511C0BA4DB857E62D4440,325,Residencia Bellas Vistas,28696,Pelayos de la Presa,91 864 42 38 / 91 864 41 51,Privada,120,,40.358592,-4.333794,España,Avenida MarcialLlorente 37
0101000020E6100000D712F241CF5611C0E7012CF2EB2D4440,326,Centro de mayores El Chaflán,28696,Pelayos de la Presa,91 864 42 00,Privada,28,www.residenciaelchaflan.com,40.358763,-4.334775,España,Calle MarcialLlorente 47
0101000020E6100000115322895E860DC0726A6798DA1E4440,327,Orpea Pinto II,28320,Pinto,91 692 69 60,Privada,144,orpea.es/centros-residencias/residencia-ancianos-madrid-pinto-ii,40.241046,-3.69061,España,Camino deSanMartíndelaVega 5
0101000020E61000002C6519E258970DC03CC1FEEBDC204440,328,Residencia Dolores Soria,28320,Pinto,608 81 09 70,Pública local,60,,40.256742,-3.6989,España,Calle JoaquínTurina 2
0101000020E6100000E00ED4298F8E0DC046B6F3FDD41E4440,329,Orpea Pinto I,28320,Pinto,91 692 86 30,Privada,160,orpea.es/centros-residencias/centro-dia-residencia-ancianos-pinto-i,40.240875,-3.694609,España,Calle SanMartín 20
0101000020E6100000AED172A087BA0EC0591822A7AF354440,330,Residencia Valderey,28223,Pozuelo de Alarcón,91 351 32 85,Privada,15,www.valderey.es,40.419423,-3.841079,España,Calle CiudadReal 18
0101000020E610000001892650C4820EC0CAA99D616A374440,331,La Atalaya,28223,Pozuelo de Alarcón,91 352 14 45,Privada sin fin de lucro,42,www.misionerasinmaculadaconcepcion.es,40.432934,-3.813851,España,Camino deAlcorcón 2
0101000020E610000028F38FBE49930EC06A1492CCEA374440,332,Fundación San Diego y San Nicolás,28223,Pozuelo de Alarcón,91 352 07 44 / 91 352 07 45,Privada,96,,40.436853,-3.821918,España,Avenida deMajadahonda 4
0101000020E6100000F01307D0EF3B0EC0A6EECA2E18344440,333,Residencia La Salud,28223,Pozuelo de Alarcón,91 711 00 25 / 91 711 85 16,Privada,44,www.residencialasalud.com,40.406988,-3.779266,España,Calle ManuelRoses 13
0101000020E6100000F0FB372F4E3C0EC056B60F79CB334440,334,Residencia 3ª edad Prado del Rey,28223,Pozuelo de Alarcón,636 69 37 07,Privada,27,,40.404647,-3.779446,España,Calle PíoMillaAndrés 5
0101000020E610000099BB96900F3A0EC058703FE081334440,335,Residencia de 3ª edad Malvarrosa,28223,Pozuelo de Alarcón,91 518 14 64 / 91 502 27 73,Privada,17,www.residenciageriatricamalvarrosa.com,40.402401,-3.77835,España,Calle PíoMillaAndrés 33
0101000020E610000061C3D32B65790EC0FB027AE1CE394440,336,Ballesol Pozuelo,28224,Pozuelo de Alarcón,91 352 55 20 / 91 352 40 79,Privada,257,ballesol.es/residencias-para-mayores-en-la-comunidad-de-madrid/ballesol-pozuelo/,40.451626,-3.809275,España,Calle Arquitectura 116-118
0101000020E61000007614E7A8A3630EC0020EA14ACD384440,337,Residencia Alarcón,28224,Pozuelo de Alarcón,91 351 09 18 / 91 715 10 91,Privada,30,www.residenciaalarcon.com,40.443765,-3.798652,España,Calle Caridad 34
0101000020E6100000B03907CF84660EC06B65C22FF5374440,338,Residencia geriátrica Las Praderas,28224,Pozuelo de Alarcón,91 352 00 82,Privada,100,www.residencialaspraderas.com,40.43717,-3.800058,España,Carretera deHúmera 69
0101000020E61000005FB4C70BE9700EC0DDB419A721384440,339,AMAVIR Pozuelo,28224,Pozuelo de Alarcón,91 799 13 92 / 902 10 09 99,Privada,180,www.amavir.es/residencia-de-ancianos-madrid-amavir-pozuelo,40.438527,-3.805132,España,Paseo delasNaciones 1
0101000020E6100000F511F8C3CF5F0EC02B31CF4A5A394440,340,Residencia Manuel Herranz,28224,Pozuelo de Alarcón,91 352 19 45,Privada sin fin de lucro,84,,40.448068,-3.796783,España,Calle GarcíaMartín 25
0101000020E61000002F302B14E95E0EC0A33CF372D8394440,341,Residencia Casa Jardín Pozuelo,28224,Pozuelo de Alarcón,619 06 04 90,Privada,21,www.residenciacasajardin.es,40.451918,-3.796343,España,Avenida LeopoldoCalvoSoteloBustelo 25
0101000020E61000004F57772CB63910C05E10919A76374440,342,DomusVi Quijorna,28693,Quijorna,91 816 88 72 / 91 816 89 36,Privada,110,www.domusvi.es/residencia-de-mayores-madrid-quijorna,40.433307,-4.056359,España,Camino delaCharneca 25
0101000020E6100000A0DCB6EF511F0BC08BE1EA0088554440,343,Residencia Santa Helena,28815,Ribatejada,91 879 19 67,Privada,33,www.residenciamayoressantahelena.com,40.668213,-3.390293,España,Carretera deAjalvir(M-113) 7
0101000020E6100000813D26529A2D0CC060E7A6CD382B4440,344,Casablanca Rivas,28521,Rivas-Vaciamadrid,91 499 77 38,Privada,104,www.grupocasablanca.net/centros-del-grupo/casablanca-rivas/,40.337671,-3.522267,España,Calle Goya 21
0101000020E6100000E99B340D8A460CC023A298BC01304440,345,Residencia GERIATEL Rivas,28523,Rivas-Vaciamadrid,91 192 21 35,Privada,112,www.geriatel.es,40.375053,-3.534443,España,Paseo delasProvincias 1
0101000020E61000000B7C45B75E330CC0FED137691A7A4440,346,Residencia municipal de Robledillo de la Jara,28194,Robledillo de la Jara,91 868 72 38,Pública local,13,,40.953931,-3.525083,España,Calle Fuente 5
0101000020E61000000188BB7A15F910C0EC17EC866D414440,347,Residencia La Suiza Santa Rita,28294,Robledo de Chavela,91 899 58 37 / 91 899 80 66,Privada,78,,40.511155,-4.243246,España,Calle Berna 4-Urb.LaSuizaEspañola
0101000020E610000071E316F3730311C0F6083543AA424440,348,Las Golondrinas,28294,Robledo de Chavela,91 899 85 41,Privada,58,geriatricalasgolondrinas.es,40.520821,-4.253372,España,Calle MigueldeCervantes 40
0101000020E61000009E5BE84A048A0FC0F94D61A582444440,349,Residencia Montesalud,28232,Rozas de Madrid (Las),91 636 99 00,Privada,150,www.montesalud.com,40.535237,-3.942391,España,Calle Azor 2-Urb.MolinodelaHoz
0101000020E61000000B293FA9F6090FC00C957F2DAF404440,350,Orpea Las Rozas,28232,Rozas de Madrid (Las),91 710 59 37,Privada,180,orpea.es/centros-residencias/centro-dia-residencia-ancianos-las-rozas,40.505346,-3.879865,España,Calle ClaraCampoamor 2
0101000020E610000008043A9336150FC0C896E5EB32424440,351,Residencia Las Rozas - Reina Sofía,28232,Rozas de Madrid (Las),91 637 40 12,Pública autonómica,504,,40.517179,-3.885358,España,Carretera deACoruña Km.21.5
0101000020E610000040C1C58A1A8C0FC08FC6A17E17444440,352,Riosalud,28232,Rozas de Madrid (Las),91 630 20 13,Privada,300,www.riosalud.es,40.531967,-3.94341,España,Camino Real 2-Urb.MolinodelaHoz
0101000020E6100000B22E6EA3013C0FC05DDC460378454440,353,Vitalia Las Rozas,28290,Rozas de Madrid (Las),91 630 47 00,Privada,246,www.vitaliahome.es/project/las-rozas/,40.542725,-3.9043,España,Calle Chile 16
0101000020E61000009F909DB7B1390FC05359147651444440,354,Sanitas Residencial Las Rozas,28290,Rozas de Madrid (Las),91 631 92 71,Privada,133,www.sanitas.es/sanitasresidencial/residencias-mayores/residencia-las-rozas,40.533736,-3.903171,España,Avenida deAtenas 5
0101000020E610000020D26F5F072E0FC0931CB0ABC9474440,355,Residencia de 3ª edad Las Matas,28290,Rozas de Madrid (Las),91 630 10 29,Privada,177,www.residencialasmatas.es,40.560842,-3.897475,España,Calle Monte 11-Urb.LasMatas
0101000020E610000003B16CE690340FC00762D9CC21454440,356,Orpea Punta Galea,28290,Rozas de Madrid (Las),91 636 92 20,Privada,160,orpea.es/centros-residencias/residencia-ancianos-las-rozas-punta-galea,40.540094,-3.900667,España,Calle PlayadeSardinero 19bis-Urb.PuntaGalea
0101000020E61000007099D36531F111C009FD4CBD6E274440,357,Residencia Real de Rozas,28649,Rozas de Puerto Real,91 863 44 79,Privada,52,realderozas.com,40.308067,-4.48554,España,Carretera deEntrepinos s/n
0101000020E6100000A2CEDC43C2F70CC02CF3565D87564440,358,AMAVIR San Agustín del Guadalix,28750,San Agustín del Guadalix,91 846 63 00,Privada,180,www.amavir.es/residencia-de-mayores-amavir-san-agustin-del-guadalix,40.676006,-3.620976,España,Calle Halcón 1
0101000020E6100000003ACC9717400CC0BDFDB968C8364440,359,Residencia de personas mayores San Fernando de Henares,28830,San Fernando de Henares,91 674 62 00,Pública autonómica,120,,40.427991,-3.531295,España,Calle VenturadeArgumosa 4
0101000020E61000005089EB18573C0CC00936AE7FD7354440,360,Orpea San Fernando,28830,San Fernando de Henares,91 485 02 82,Pública local,140,orpea.es/centros-residencias/centro-dia-residencia-ancianos-san-fernando-henares,40.420639,-3.529463,España,Calle Vergara 13
0101000020E6100000A43330F2B28610C0E86B96CB464D4440,361,Orpea El Escorial,28200,San Lorenzo de El Escorial,91 899 73 04,Privada,180,orpea.es/centros-residencias/centro-dia-residencia-ancianos-el-escorial,40.603723,-4.131542,España,Calle LuisdeCerveraVera 1-Urb.LasPozas
0101000020E610000050E3DEFC869910C0AC3C81B0534C4440,362,Residencia de ancianos María Leonor y Legado de los pobres Hernández Muriel,28200,San Lorenzo de El Escorial,91 890 51 04,Privada,74,www.residenciamarialeonor.org,40.596304,-4.149929,España,Calle MaríaLeonor 3
0101000020E6100000A6272CF1809210C0DC4603780B4C4440,363,Alba San Lorenzo,28200,San Lorenzo de El Escorial,91 890 08 83,Privada,182,residenalba.net/alba-san-lorenzo,40.5941,-4.14307,España,Calle MarianoSainz 1
0101000020E6100000575BB1BFEC9E0CC05298F738D31A4440,364,Residencia San Marcos,28330,San Martín de la Vega,91 808 72 58,Privada,80,residencia-sanmarcos.com,40.209571,-3.5776,España,Calle RodrigodeTriana 23
0101000020E6100000AB7B6473D58C11C093A7ACA6EB2D4440,365,Centro residencial Juan Pablo II,28680,San Martín de Valdeiglesias,91 861 14 06,Privada,182,www.lopezrumayor.com,40.358754,-4.387533,España,Carretera Comarcal501 Km.57
0101000020E61000002FA4C343189F11C01938A0A52B2E4440,366,Residencia Virgen de la Nueva,28680,San Martín de Valdeiglesias,91 861 19 96,Privada,114,residenciavirgendelanueva.es,40.360707,-4.405366,España,Calle ManuelCarvajal 14
0101000020E6100000F6798CF2CC9B11C076C075C58C2E4440,367,Residencia de personas mayores San Martín de Valdeiglesias,28680,San Martín de Valdeiglesias,91 861 04 00,Pública autonómica,122,,40.363671,-4.402149,España,Calle SanMartín 2
0101000020E6100000A89196CADBD10CC050ABE80FCD484440,368,Residencia Años Dorados II,28701,San Sebastián de los Reyes,91 653 53 53,Privada,50,residenciasanosdorados.com,40.568758,-3.60247,España,Paseo deEuropa 52
0101000020E6100000AAB9DC60A8030DC0841266DAFE454440,369,Hogar Virgen de la Esperanza,28701,San Sebastián de los Reyes,91 651 55 11,Privada sin fin de lucro,72,,40.54684,-3.626786,España,Calle Iglesia 5
0101000020E610000071C79BFC16FD0CC04C55DAE21A474440,370,AMAVIR La Marina,28703,San Sebastián de los Reyes,91 659 01 88,Privada,159,www.amavir.es/residencia-de-mayores-amavir-la-marina,40.555508,-3.623579,España,Avenida deCataluña 4
0101000020E6100000E1421EC18DF40CC0AA2D7590D7454440,371,Centro Residencial para Mayores Años Dorados,28703,San Sebastián de los Reyes,91 654 44 07,Privada,48,,40.545641,-3.619411,España,Calle LosCerezos 4
0101000020E6100000DD088B8A38FD0CC020B75F3E59454440,372,Residencia San Sebastián de los Reyes,28703,San Sebastián de los Reyes,91 623 70 12,Pública autonómica,140,www.albertia.es/residencias/residencia-san-sebastian-de-los-reyes/,40.541786,-3.623643,España,Calle MarieCurie s/n
0101000020E6100000185DDE1CAEF50EC0AF3E1EFAEE1A4440,373,Las Mimosas,28979,Serranillos del Valle,91 813 81 93,Privada,72,www.lasmimosas.com,40.210418,-3.869961,España,Calle Retama 12
0101000020E61000008EAED2DD75F60EC0A5DB12B9E01A4440,374,Flor de Retama,28979,Serranillos del Valle,91 817 58 01 / 606 53 41 10,Privada,20,www.residenciaflorderetama.com,40.209983,-3.870342,España,Calle Retama 15
0101000020E6100000F886C267EB000DC04EED0C535B664440,409,Residencia 3ª edad GERONTOS,28729,Venturada,91 843 94 90,Privada,23,www.residenciagerontos.com,40.799662,-3.625449,España,Avenida deMadrid 1
0101000020E61000000C570740DCF50EC0BB44F5D6C01A4440,375,Residencia Ecoplar Griñón-Serranillos,28979,Serranillos del Valle,91 813 81 38,Privada,120,www.ecoplar.com/nuestros-centros/ecoplar-grinon-serranillos/,40.20901,-3.870049,España,Calle Retama 2
0101000020E6100000CD902A8A57F90EC017D4B7CCE91A4440,376,Residencia Castilla,28979,Serranillos del Valle,91 817 55 21,Privada,26,www.residenciasrlm.es,40.21026,-3.871749,España,Calle Sierra 16-Urb.LaSierra
0101000020E610000037C64E78093E10C035289A07B02C4440,377,Residencia Los Cortijos,28609,Sevilla la Nueva,91 812 96 64,Privada,57,residencialoscortijos.es,40.349122,-4.060583,España,Calle CarrilAntiguo 20
0101000020E61000002D26361FD70610C0A167B3EA732D4440,378,Urbanización de mayores,28609,Sevilla la Nueva,91 812 91 44,Privada,178,www.rosalbagestion.es/centros/urbanizacón_de_mayores,40.3551,-4.00668,España,Avenida deGuadarrama s/n
0101000020E610000083A7902BF51C10C00A80F10C1A2C4440,379,Residencia Santa Bárbara del Hórreo,28609,Sevilla la Nueva,91 812 92 97,Privada,33,www.residenciasantabarbara.es,40.344545,-4.028279,España,Calle JacintoBenavente 15
0101000020E6100000A81B28F04E1E10C006DA1D520C2C4440,380,Residencia Rosalba,28609,Sevilla la Nueva,91 812 88 52,Privada,210,www.gruporosalba.es,40.344126,-4.029598,España,Calle Tórtola 1
0101000020E610000012312592E8450EC0EBC4E57805604440,381,Residencia de 3ª edad Sierra de Madrid,28791,Soto del Real,619 24 23 33 / 91 847 62 97,Privada,29,,40.750167,-3.784135,España,Calle Acero 3
0101000020E6100000CEA44DD53D520EC02FA699EE75604440,382,Residencia Soto Fresnos,28791,Soto del Real,91 848 05 10,Privada,111,www.asispa.org/servicios/residencias-asistidas/titularidad-de-asispa/residencia-soto-fresnos-_madrid,40.753599,-3.790157,España,Avenida deEspaña 11
0101000020E6100000807EDFBF79110CC0963FDF162C5F4440,383,Primar II Centro Geriátrico,28160,Talamanca de Jarama,91 841 77 35,Privada,277,www.primar.es,40.743533,-3.508533,España,Avenida deMadrid s/n
0101000020E6100000A181583673880AC0064A0A2C801F4440,384,Residencia La Solana,28550,Tielmes,91 874 60 50,Privada,142,www.casona2000.es,40.246099,-3.316626,España,Plaza delaIglesia 4
0101000020E6100000DFFDF15EB5B20BC0C9C859D8D33A4440,385,Residencia Las Celindas,28850,Torrejón de Ardoz,91 656 52 73,Privada,76,lascelindas.gruposantagema.com,40.45959,-3.46226,España,Avenida delaConstitución 128
0101000020E6100000309E4143FFC40BC0FCC401F4FB384440,386,Pisos tutelados para mayores,28850,Torrejón de Ardoz,91 343 68 02,Pública autonómica,240,,40.445189,-3.47119,España,Avenida delosFresnos 11
0101000020E6100000DDCEBEF2209D0BC0CA4E3FA88B3A4440,387,AMAVIR Torrejón de Ardoz,28850,Torrejón de Ardoz,91 627 77 00,Privada,180,www.amavir.es/residencia-de-mayores-amavir-torrejon,40.457387,-3.451723,España,Calle Francia 6
0101000020E6100000AB96749483B90BC02B14E97E4E3B4440,388,Edalia Torrejón de Ardoz,28850,Torrejón de Ardoz,91 655 62 93,Privada,149,www.edalia.es,40.463333,-3.465583,España,Calle Milán 6
0101000020E6100000DEC66647AACF0BC082919735B13A4440,389,Residencia Nuestra Señora del Rosario,28850,Torrejón de Ardoz,91 675 28 59,Privada,56,delrosario.gruposantagema.com,40.458533,-3.476399,España,Calle Soledad 39
0101000020E6100000A987687407710EC01B9E5E29CB184440,390,Residencia de 3ª edad Magán,28991,Torrejón de la Calzada,91 810 61 15,Privada,140,www.domusvi.es/residencia-de-tercera-edad-torrejon-de-la-calzada,40.1937,-3.80519,España,Calle MiguelDelibes s/n
0101000020E6100000D48041D2A7550CC074ECA012D7694440,391,Residencia para personas mayores Torrelaguna,28180,Torrelaguna,91 843 00 25,Pública autonómica,94,,40.826876,-3.541824,España,Calle DoctorManuelHidalgoHuerta 12
0101000020E610000069705B5B785E0FC0408A3A730F4B4440,392,Centro Residencial Sanitas Torrelodones,28250,Torrelodones,91 854 91 20,Privada,143,www.sanitas.es/sanitasresidencial/residencias-mayores/residencia-torrelodones,40.586409,-3.921128,España,Calle Álamo 2
0101000020E61000009DF17D71A92A0FC0904946CEC2484440,393,Centro de Mayores MIAL Salud,28250,Torrelodones,91 630 85 81,Privada,174,www.mialsalud.com,40.568445,-3.895831,España,Avenida delosPinares 2
0101000020E6100000B0524145D52F0FC008E8BE9CD9484440,394,Residencia Los Peñascales,28250,Torrelodones,91 630 35 98,Privada,127,www.residenciapenascales.com,40.569141,-3.898356,España,Avenida delLago 25
0101000020E610000095B54DF1B8A80FC074B7EBA5294A4440,395,Acacias Centro Geriátrico,28250,Torrelodones,91 859 45 30,Privada,20,www.residencia-acacias.com,40.579396,-3.957384,España,Calle JesusaLara 36
0101000020E6100000D3DEE00B93A90FC0A69BC420B04A4440,396,Residencia de ancianos Santa María de los Ángeles,28250,Torrelodones,91 859 03 77 / 91 859 38 41 / 91 859 03 77,Privada,33,www.rsantamariadelosangeles.es,40.5835,-3.9578,España,Calle MonteCristina 6
0101000020E610000006499F56D19F0FC04B051555BF4A4440,397,Orpea Torrelodones,28250,Torrelodones,91 856 90 90,Privada,156,orpea.es/centros-residencias/residencia-ancianos-torrelodones-madrid,40.583964,-3.953036,España,Avenida RosarioManzaneque 19
0101000020E61000004CA4349BC7010CC085EAE6E26F6B4440,398,Residencia municipal Hontanar de Jarama,28189,Torremocha de Jarama,91 843 10 55,Pública local,98,,40.839352,-3.500869,España,Calle CanaldeIsabelII 38
0101000020E6100000EC6D3315E2F10AC0ED4ACB48BD334440,399,Residencia de 3ª edad La Alameda,28813,Torres de la Alameda,91 885 88 68,Privada,146,www.residencia-alameda.es,40.404214,-3.368107,España,Calle MigueldeUnamuno 43
0101000020E610000066F84F3750E00AC0529E7939EC324440,400,Residencia para mayores Rosario,28813,Torres de la Alameda,91 886 30 61,Pública local,112,www.domusvi.es/residencia-mayores-madrid-rosari,40.397834,-3.359528,España,Calle Palmeras 3
0101000020E6100000C45E28603BB80DC000378B170B4D4440,401,DomusVi Tres Cantos,28760,Tres Cantos,91 806 50 51,Privada,99,www.domusvi.es/residencia-para-mayores-sarquavitae-tres-cantos,40.601901,-3.714957,España,Ronda dePoniente 1
0101000020E6100000785E2A36E6B50DC026FF93BF7B4D4440,402,Ballesol Tres Cantos,28760,Tres Cantos,91 804 71 92,Privada,180,ballesol.es/residencias-para-mayores-en-la-comunidad-de-madrid/ballesol-tres-cantos/,40.605339,-3.713818,España,Calle Panaderos s/n(SectorOficios41)
0101000020E6100000DD7BB8E4B8B30DC0300DC347C44E4440,403,Residencia asistida San Camilo,28760,Tres Cantos,91 803 40 00,Privada sin fin de lucro,172,www.humanizar.es/servicios-asistenciales/residencia-geriatrica-asistida.html,40.615365,-3.712755,España,Calle SectorEscultores 39
0101000020E61000005839B4C8767E0DC0F241CF66D5174440,404,Casablanca Valdemoro,28341,Valdemoro,91 801 83 60,Privada,160,www.grupocasablanca.es/residencias/casablanca-valdemoro/,40.1862,-3.68675,España,Calle Aragón 2
0101000020E61000005D8AABCABE6B0DC00F9C33A2B4174440,405,DomusVi Valdemoro,28341,Valdemoro,91 808 59 80,Privada,180,www.domusvi.es/residencia-de-mayores-madrid-valdemoro,40.1852,-3.67761,España,Paseo Juncarejo 2-Urb.ElRestón
0101000020E61000007E384888F2850DC02254A9D903194440,406,Residencia municipal Nuestra Señora del Rosario,28342,Valdemoro,91 876 26 58,Pública local,134,www.domusvi.es/residencia-de-ancianos-en-valdemoro-domusvi-nuestra-sra-del-rosario/,40.19543,-3.690404,España,Calle LiliÁlvarez 3
0101000020E610000013D55B035B650DC039B4C876BE174440,407,Casablanca Valdesur,28343,Valdemoro,91 895 04 00,Privada,178,www.grupocasablanca.es/residencias/casablanca-valdesur,40.1855,-3.67449,España,Carretera deAndalucía Km.25
0101000020E6100000EB1B98DC28320CC01E32E54350574440,408,Residencia de 3ª edad Los Pinos,28150,Valdetorres de Jarama,91 841 57 02,Privada,21,,40.682137,-3.524492,España,Avenida CalderóndelaBarca 1-Urb.Silillos
0101000020E6100000CB0F5CE5093411C08E78B29B19234440,410,Residencia de personas mayores Villa del Prado,28630,Villa del Prado,91 862 22 01,Pública autonómica,120,,40.274219,-4.300819,España,Paseo delaEstación 2
0101000020E6100000541EDD088BEA0AC0F25F200890394440,411,Residencia de 3ª edad Peñas Albas,28810,Villalbilla,91 879 24 13,Privada,84,,40.449708,-3.364523,España,Avenida deEspaña 4-Urb.PeñasAlbas
0101000020E6100000ACC5A70018CF0AC0A583F57F0E394440,412,Residencia Los Hueros,28810,Villalbilla,91 879 38 56 / 682 74 08 52,Privada,16,www.residenciademayoresloshueros.com,40.445755,-3.35112,España,Calle Mayor 53
0101000020E61000003D80457EFD700AC05853591476374440,413,Residencia de 3ª edad San Miguel,28810,Villalbilla,91 885 02 81,Privada,34,www.residenciasanmiguel.biz,40.433291,-3.305171,España,Calle ReyesMagos 27
0101000020E61000005F29CB10C77A10C0554D10751F264440,414,Residencia La Paz,28610,Villamanta,91 813 60 05,Privada,54,www.lapazresidencia.com,40.297835,-4.1199,España,Camino deAldeadelFresno 1
0101000020E6100000CA6ABA9EE87A10C0300F99F221264440,415,Casaverde Vilamanta,28610,Villamanta,91 813 63 35 / 91 813 62 26,Privada,67,www.grupocasaverde.com/centro-para-mayores-casaverde-villamanta,40.297911,-4.120028,España,Carretera deCadalsodelosVidrios Km.9.6
0101000020E6100000CE6F9868907210C04E0B5EF415264440,416,Villa Victoria Residencia,28610,Villamanta,91 813 65 32,Privada,19,www.villavictoriaresidencia.com,40.297545,-4.111879,España,Paseo delaEstación 6
0101000020E6100000295E656D536C10C0473D44A33B264440,417,Residencia Virgen del Socorro,28610,Villamanta,91 813 67 38,Privada,98,www.residenciavirgendelsocorro.com,40.298695,-4.105787,España,Avenida Generalísimo 2
0101000020E61000002EE3A6069A0F10C0BA8102EFE4394440,418,Orpea Villanueva de la Cañada,28691,Villanueva de la Cañada,91 811 79 80,Privada,328,orpea.es/centros-residencias/centro-dia-residencia-ancianos-villanueva-canada,40.452299,-4.015236,España,Camino deEncinarejo 3
0101000020E6100000FAD346753AF00FC0E5EC9DD156394440,419,AMAVIR Villanueva,28691,Villanueva de la Cañada,91 815 57 01,Privada,180,www.amavir.es/residencia-de-ancianos-madrid-amavir-villanueva-de-la-canada,40.447962,-3.992299,España,Avenida Madrid 3
0101000020E6100000F433F5BA45C00FC06E197096923D4440,420,Centro sociosanitario Medinaceli,28229,Villanueva del Pardillo,91 815 44 70,Privada,122,grupomedinaceli.com/centros/centros-propios/villanueva-del-pardillo-centro/,40.481036,-3.968883,España,Avenida delosEstudiantes 3
0101000020E6100000897B2C7DE8820FC073D712F2412F4440,421,Residencia de personas mayores Villaviciosa de Odón,28670,Villaviciosa de Odón,91 647 73 18 / 91 616 73 18,Pública autonómica,322,,40.3692,-3.93892,España,Carretera deSanMartíndeValdeiglesias Km.11.200
0101000020E610000065FB90B75C1D0FC032225168592D4440,422,"Residencia El Castillo, S. L.",28670,Villaviciosa de Odón,91 616 34 61,Privada,73,www.grupoelcastillo.com,40.354291,-3.889337,España,Avenida delValle 7-Urb.ElCastillo
0101000020E61000001A4B581B63870FC0CEC133A149304440,423,Residencia San Carlos del Bosque,28670,Villaviciosa de Odón,91 616 83 80 / 91 616 85 77,Privada,30,www.residenciasnacarlos.com,40.377247,-3.941107,España,Calle Jalón 20
0101000020E6100000A1D634EF38650FC0FAD4B14AE92F4440,424,Residencia Nuestra Señora de la Antigua,28670,Villaviciosa de Odón,91 616 70 18,Privada,49,www.antiguaresidencia.com,40.374307,-3.924425,España,Calle Nervión 6
0101000020E6100000F8FE06EDD5A710C037E0F3C308454440,425,Residencia Santa Fe,28293,Zarzalejo,91 899 24 47,Privada,81,,40.53933,-4.163902,España,Avenida delaEstación 71
